timestamp,temperature,q[0],q[1],q[2],q[3],noutputs,output[0],output[1],output[2],output[3],output[4],output[5],output[6],output[7],output[8],output[9],arming_state,nav_state,vehicle_type,x,y,z,vx,vy,vz,ax,ay,az,lat,lon,alt,alt_ellipsoid,voltage_v,voltage_filtered_v,current_a,current_filtered_a,current_average_a,discharged_mah,remaining,control[0],control[1],control[2],control[3]
60198795.62,39.629999,0.6129799533333333,0.0002435320505555,0.0026097691944444,-0.7900941088888889,10.0,974.0,976.0,974.0,976.0,900.0,900.0,900.0,900.0,900.0,900.0,2.0,1.0,1.0,0.59105116,0.14253779,4.54689,0.013481472,-0.012058817,0.07844083,0.0027318562,-0.0063579376,-0.007519484,24.43647501545079,54.61391550800118,14.328453,-14.0890255,16.67125,16.67209,0.44543457,0.4114281,14.941947,5.4862537,95.47468,8.543886527565215e-11,0.0020000002307692,5.766814988208695e-11,0.0020000003423076
60301112.94,39.629999,0.6119650342105263,0.0002504350299999,0.0026168947736842,-0.7908803268421053,10.0,1005.0,1006.0,1005.0,1006.0,900.0,900.0,900.0,900.0,900.0,900.0,2.0,1.0,1.0,0.5924551,0.14257567,4.5566735,0.013272131,-0.011978905,0.077691324,0.003423186,-0.009683669,-0.020277612,24.436475054263653,54.61391549621262,14.302029,-14.110057,16.67125,16.672014,0.44543457,0.41709584,14.9130125,5.498687,95.47196,8.065465389951853e-11,0.0020000002535714,4.212712965377779e-11,0.0020000002964285
60394794.36,39.629999,0.6104937463157895,0.0002475284447368,0.0026235272789473,-0.7920165436842105,10.0,1034.0,1035.0,1034.0,1035.0,900.0,900.0,900.0,900.0,900.0,900.0,2.0,1.0,1.0,0.5938205,0.1424554,4.564719,0.012822688,-0.0116335405,0.07671771,-0.0051903715,0.0012267899,-0.012935489,24.43647504035616,54.613915507187336,14.310624,-14.103314,16.67125,16.671944,0.4404297,0.42098483,14.884135,5.510987,95.469433,7.557197333850001e-11,0.0020000002153846,2.212111806095238e-11,0.0020000003653846
60492275.64,39.629999,0.6089175145,0.0002383701975,0.002613075385,-0.79322903,10.0,1050.0,1051.0,1050.0,1051.0,900.0,900.0,900.0,900.0,900.0,900.0,2.0,1.0,1.0,0.5955363,0.1413977,4.5753117,0.013406728,-0.011973963,0.076058365,0.22301255,-0.04568232,-0.13417558,24.436475054263653,54.61391549621262,14.302029,-14.110057,16.669583333333335,16.671706,0.5772298233333334,0.4527641433333333,14.874683500000002,5.520577333333333,95.46094433333332,1.1570525335e-10,0.0020000001785714,1.6391429286073797e-05,0.0019900485571428
60587365.5,39.629999,0.6076355152631578,0.0002265666394736,0.0026037714789473,-0.7942116868421052,10.0,1050.0,1052.0,1050.0,1050.0,900.0,900.0,900.0,900.0,900.0,900.0,2.0,1.0,1.0,0.5969134,0.14023337,4.5819087,0.013642986,-0.01222625,0.07444758,0.028348291,-0.20154639,-0.25490668,24.43647506817114,54.613915485237904,14.293434,-14.1168,16.66625,16.67116,0.8458252,0.52021176,14.826903,5.552058,95.44144,8.439215405078843e-05,0.0020750153777777,7.441908523065427e-05,0.001792088516145
60685258.64,39.629999,0.6067531865,0.0002258623379999,0.00260604814,-0.7948859885,10.0,1050.0,1051.0,1050.0,1051.0,900.0,900.0,900.0,900.0,900.0,900.0,2.0,1.0,1.0,0.5986849,0.139764,4.5912724,0.011862486,-0.012341919,0.07523896,-0.4298975,-0.06484714,0.06999815,24.436475083101392,54.613915481847485,14.2850715,-14.123181,16.667499499999998,16.670949999999998,0.753234865,0.54201433,14.7988455,5.5705705,95.433955,3.383788351722118e-05,0.0020253786678571,3.895196823786083e-05,0.0019186385855519
60779902.44,39.629999,0.6060725988888889,0.0002255394077777,0.0026145433444444,-0.7954050172222222,10.0,1050.0,1051.0,1050.0,1051.0,900.0,900.0,900.0,900.0,900.0,900.0,2.0,1.0,1.0,0.60023373,0.13954692,4.5986347,0.012680084,-0.012541972,0.07424941,0.021421699,-0.019602219,0.21596633,24.436475098031647,54.61391547845707,14.276709,-14.129562,16.668749,16.67074,0.66064453,0.5638169,14.770788,5.589083,95.42647,3.947597567068455e-07,0.0020003341807692,6.6244491335e-11,0.0019993325192307
60885510.5,39.629999,0.6050432090476191,0.0002308562038095,0.0026305035809523,-0.7961881104761904,10.0,1050.0,1051.0,1050.0,1051.0,900.0,900.0,900.0,900.0,900.0,900.0,2.0,1.0,1.0,0.6018920050000001,0.13964256,4.60652815,0.0120830025,-0.0120249584999999,0.0728359859999999,-0.0788865164999999,0.0073677979999999,0.0797239905,24.43647511298656,54.61391547959526,14.269162,-14.135263,16.6693745,16.670623499999998,0.618103015,0.5704771,14.7426375,5.606139799999999,95.4222975,1.8941542113215504e-05,0.0020135298821428,6.120234713461538e-11,0.0019729411464285
60987569.12,39.629999,0.6036565831578947,0.0002354804563157,0.0026374850473684,-0.7972399778947369,10.0,1050.0,1051.0,1050.0,1051.0,900.0,900.0,900.0,900.0,900.0,900.0,2.0,1.0,1.0,0.60355955,0.13977736,4.6137285,0.011759129,-0.011742166,0.071592934,0.034171395,0.08660375,0.08035575,24.436475127941463,54.613915480733446,14.261615,-14.140964,16.67,16.670507,0.5755615,0.5771373,14.714487,5.6231966,95.418125,5.16346425572665e-11,0.0020000002333333,7.346013360000001e-11,0.0020000003629629
61085030.06,39.629999,0.602583916,0.0002320517635,0.0026363703949999,-0.7980511365,10.0,1050.0,1051.0,1050.0,1051.0,900.0,900.0,900.0,900.0,900.0,900.0,2.0,1.0,1.0,0.60508984,0.13948196,4.622477,0.012030311,-0.011473777,0.07026264,0.05875834,0.027316801,-0.047424268,24.43647514118802,54.61391547641813,14.253824000000002,-14.146792,16.67,16.6704635,0.5680542,0.5752977749999999,14.6862895,5.638976550000001,95.4165755,5.90047523347619e-11,0.0020000002464285,6.863799719636364e-11,0.00200000025
61180774.94,39.629999,0.6018633000000001,0.0002263343815789,0.0026400029421052,-0.798594715263158,10.0,1050.0,1051.0,1050.0,1051.0,900.0,900.0,900.0,900.0,900.0,900.0,2.0,1.0,1.0,0.60650545,0.13890365,4.62931,0.01246457,-0.011146651,0.06906968,0.0038995573,0.09447848,-0.044895783,24.43647515443457,54.61391547210281,14.246033,-14.15262,16.67,16.67042,0.5605469,0.57345825,14.658092,5.6547565,95.415026,5.833609923333332e-11,0.0020000002148148,7.634922990769229e-11,0.0020000003333333
61278005.32,39.6349995,0.601094151,0.000227718221,0.002634886045,-0.7991738245,10.0,1050.0,1051.0,1050.0,1051.0,900.0,900.0,900.0,900.0,900.0,900.0,2.0,1.0,1.0,0.6088274,0.1383797,4.637992,0.01286869,-0.011308209,0.06827188,-0.01574919,0.0149962045,-0.018897006,24.43647517498169,54.61391546597258,14.238986,-14.1576935,16.6693745,16.6703265,0.5605469,0.571485725,14.62998175,5.670411100000001,95.411688,5.4401497214285706e-11,0.0020000002214285,6.186909690772727e-11,0.0020000002714285
61373844.38,39.64,0.6001801705555556,0.0002322560911111,0.0026268205333333,-0.7998604816666667,10.0,1050.0,1051.0,1050.0,1051.0,900.0,900.0,900.0,900.0,900.0,900.0,2.0,1.0,1.0,0.6110749,0.13766247,4.6434035,0.01311252,-0.011480079,0.06709589,0.044979293,0.014705321,0.031927507,24.43647519552881,54.613915459842346,14.231939,-14.162767,16.668749,16.670233,0.5605469,0.5695132,14.6018715,5.6860657,95.40835,4.819534702500001e-11,0.002000000237037,5.957800880833333e-11,0.0020000004
61469281.26,39.64,0.5990819144999999,0.0002356258875,0.002630146015,-0.800683304,10.0,1050.0,1051.0,1050.0,1051.0,900.0,900.0,900.0,900.0,900.0,900.0,2.0,1.0,1.0,0.6133584,0.13723558,4.6518583,0.012668207,-0.011612012,0.06622046,-0.032163814,0.0044822954,0.06371005,24.43647521420302,54.613915455313446,14.2251135,-14.167398250000002,16.668749,16.6701555,0.5605469,0.56849092,14.57387825,5.70178685,95.405585,4.747903414e-11,0.002000000225,4.9258203366666666e-11,0.0020000002714285
61565855.16,39.64,0.5977730694736842,0.000239494008421,0.0026354404894736,-0.8016609252631578,10.0,1050.0,1051.0,1050.0,1051.0,900.0,900.0,900.0,900.0,900.0,900.0,2.0,1.0,1.0,0.6152279,0.13674551,4.6570554,0.012609342,-0.012000269,0.06433828,-0.004867475,-0.04552531,-0.12853655,24.43647523287723,54.61391545078455,14.218288,-14.1720295,16.668749,16.670078,0.5605469,0.56746864,14.545885,5.717508,95.40282,6.859650106e-11,0.0020000001592592,7.36065535244e-11,0.0020000002888888
61662294.44,39.64,0.596514623,0.000241950365,0.00263969518,-0.802597764,10.0,1050.0,1051.0,1050.0,1051.0,900.0,900.0,900.0,900.0,900.0,900.0,2.0,1.0,1.0,0.61735946,0.13620202,4.664816,0.012509291,-0.012066018,0.06382421,-0.03699458,0.02982841,0.042740244,24.43647525132093,54.61391544453672,14.211763,-14.17644575,16.6693745,16.670019,0.5605469,0.56641117,14.5179985,5.733159,95.4006975,6.353504174136363e-11,0.0020000002464285,4.825986901269231e-11,0.00200000025
61758749.7,39.64,0.5954225738888889,0.0002416898427777,0.0026485036222222,-0.8034082672222221,10.0,1050.0,1051.0,1050.0,1051.0,900.0,900.0,900.0,900.0,900.0,900.0,2.0,1.0,1.0,0.6193296,0.13548052,4.6701055,0.012969118,-0.011933567,0.06279388,0.077671535,0.024559911,0.049627714,24.43647526976464,54.61391543828888,14.205238,-14.180862,16.67,16.66996,0.5605469,0.5653537,14.490112,5.74881,95.398575,6.188992193636364e-11,0.0020000002230769,5.766729057272727e-11,0.0020000003961538
61851353.72,39.64,0.5944546959999999,0.0002356678515,0.002653240005,-0.8041246474999999,10.0,1050.0,1051.0,1050.0,1051.0,900.0,900.0,900.0,900.0,900.0,900.0,2.0,1.0,1.0,0.62091154,0.13512632,4.6779556,0.012701812,-0.011899576,0.061457228,-0.006842204,-0.045267697,-0.15591711,24.43647528288416,54.6139154344978,14.1983665,-14.185589,16.6693745,16.669854,0.5605469,0.564619365,14.4623365,5.7645155,95.3948075,9.35467179e-11,0.0020000002785714,2.5689917330909088e-11,0.0020000002392857
61947274.0,39.64,0.5935010436842105,0.0002254950657894,0.0026632701052631,-0.8048287757894738,10.0,1050.0,1051.0,1050.0,1051.0,900.0,900.0,900.0,900.0,900.0,900.0,2.0,1.0,1.0,0.6222472,0.13471295,4.6838484,0.011802973,-0.011676427,0.06133068,0.017892407,-0.006128873,-0.050474316,24.436475296003675,54.61391543070672,14.191495,-14.190316,16.668749,16.669748,0.5605469,0.56388503,14.434561,5.780221,95.39104,8.138471275e-11,0.0020000002384615,5.0845181633333325e-11,0.0020000003576923
62042390.9,39.64,0.5926905425,0.0002307486875,0.002670602525,-0.8054258335,10.0,1050.0,1051.0,1050.0,1051.0,900.0,900.0,900.0,900.0,900.0,900.0,2.0,1.0,1.0,0.6242743,0.13448432,4.691365,0.012241294,-0.011825247,0.060693886,0.02375724,-0.08978487,-0.1264254,24.43647531451466,54.61391542769533,14.184985,-14.194624999999998,16.668749,16.669713,0.5605469,0.563375065,14.4068965,5.795885800000001,95.389777,9.61737223216e-11,0.0020000001892857,6.938459840384616e-11,0.0020000002607142
62140026.24,39.64,0.592084842631579,0.0002322278278947,0.002661594968421,-0.8058712236842106,10.0,1050.0,1051.0,1050.0,1051.0,900.0,900.0,900.0,900.0,900.0,900.0,2.0,1.0,1.0,0.6263639,0.13410324,4.696868,0.012380544,-0.011776041,0.060180232,-0.01661124,0.055471968,0.1056647,24.43647533302564,54.61391542468394,14.178475,-14.198934,16.668749,16.669678,0.5605469,0.5628651,14.379232,5.8115506,95.388514,8.268308398809523e-11,0.0020000002037037,4.3430783200000005e-11,0.0020000003111111
62235414.76,39.64833333333333,0.5913551715,0.0002345986275,0.00265805685,-0.8064067845,10.0,1050.0,1051.0,1050.0,1051.0,900.0,900.0,900.0,900.0,900.0,900.0,2.0,1.0,1.0,0.6284363,0.13403274,4.7042875,0.011944419,-0.011251725,0.059194833,-0.07046885,0.01240448,-0.010300399,24.436475350839505,54.61391542339554,14.1719915,-14.203178,16.668749,16.669597000000003,0.5630493299999999,0.562928,14.3516775,5.8272663,95.385605,6.813984973573914e-11,0.0020000002285714,5.6636546920399984e-11,0.002000000375
62333276.14,39.656666666666666,0.5904104468421053,0.0002369313510526,0.0026591079157894,-0.8070986910526317,10.0,1050.0,1051.0,1050.0,1051.0,900.0,900.0,900.0,900.0,900.0,900.0,2.0,1.0,1.0,0.6303255,0.13384238,4.7098355,0.0118687665,-0.011437028,0.05824786,-0.0020568497,0.031840425,0.07893117,24.43647536865337,54.61391542210714,14.165508,-14.207422,16.668749,16.669516,0.56555176,0.5629909,14.324123,5.842982,95.382696,5.815279841590909e-11,0.0020000002444444,4.909770436818181e-11,0.0020000003629629
62427867.16,39.665,0.589421097368421,0.0002364739015789,0.0026572404,-0.8078215336842106,10.0,1050.0,1051.0,1050.0,1051.0,900.0,900.0,900.0,900.0,900.0,900.0,2.0,1.0,1.0,0.6321736,0.13365667,4.7172904,0.011686019,-0.011769761,0.057867277,0.06579532,-0.028911784,0.05758167,24.43647538522684,54.61391541900736,14.1585615,-14.2120925,16.668749,16.6695005,0.56555176,0.5630345999999999,14.2966835,5.8587105,95.382173,5.364584628913042e-11,0.0020000002392857,5.97654978624e-11,0.0020000003535714
62525100.38,39.665,0.5885947914999999,0.000232245654,0.002660098075,-0.808423827,10.0,1050.0,1051.0,1050.0,1051.0,900.0,900.0,900.0,900.0,900.0,900.0,2.0,1.0,1.0,0.63401127,0.13321477,4.723728,0.0115874875,-0.011619979,0.05656348,-0.02058832,-0.02372037,0.036344282,24.436475401800315,54.613915415907584,14.151615,-14.216763,16.668749,16.669485,0.56555176,0.5630783,14.269244,5.874439,95.38165,1.0333918195454544e-10,0.002000000174074,2.6564043044583336e-11,0.0020000002296296
62619636.82,39.665,0.5881337935,0.0002196542465,0.00266261771,-0.808759274,10.0,1050.0,1051.0,1050.0,1051.0,900.0,900.0,900.0,900.0,900.0,900.0,2.0,1.0,1.0,0.6350241425,0.1332004525,4.726946850000001,0.011586050875,-0.0115646242499999,0.0561511195,0.0182044098749999,-0.01969554525,-0.0069240879999999,24.436475419231986,54.61391541388829,14.145582,-14.220461,16.668749,16.6694515,0.5630493299999999,0.56286735,14.255568,5.8822615,95.3804565,9.842678603976192e-11,0.0020000002137931,2.8438743702336e-11,0.002000000275862
62716044.08,39.665,0.5879843694736842,0.0002188459389473,0.0026619537105263,-0.808867897368421,10.0,1050.0,1051.0,1050.0,1051.0,900.0,900.0,900.0,900.0,900.0,900.0,2.0,1.0,1.0,0.6360238,0.13312444,4.730975,0.011648433,-0.01136386,0.055768315,0.037646294,0.054041393,-0.01013914,24.436475419231986,54.61391541388829,14.145582,-14.220461,16.668749,16.669418,0.5605469,0.5626564,14.241892,5.890084,95.379263,1.2710382276190474e-10,0.0020000002357142,5.769022980476191e-12,0.002000000275
62809745.62,39.665,0.5879757178947368,0.0002194956747368,0.0026672693368421,-0.8088741784210526,10.0,1050.0,1051.0,1050.0,1051.0,900.0,900.0,900.0,900.0,900.0,900.0,2.0,1.0,1.0,0.6378879,0.13280593,4.735794,0.011422264,-0.011504897,0.054405406,-0.0100356545,-0.08019142,-0.111483164,24.436475436663656,54.613915411868994,14.139549,-14.224159,16.6693745,16.669468000000002,0.5380248999999999,0.5557999499999999,14.2145715,5.904544,95.3810265,1.1711357904761906e-10,0.002000000276923,4.999958155166667e-12,0.0020000003346153
62905463.72,39.665,0.5880131026315789,0.0002209647621052,0.0026664248947368,-0.8088470152631578,10.0,1050.0,1051.0,1050.0,1051.0,900.0,900.0,900.0,900.0,900.0,900.0,2.0,1.0,1.0,0.6396699,0.13291334,4.742172,0.011569544,-0.011098548,0.053851232,0.04809732,0.088809036,-0.06936938,24.43647545181957,54.61391541245027,14.1337295,-14.2275995,16.67,16.669518,0.5155029,0.5489435,14.187251,5.919004,95.38279,1.10325414286e-10,0.0020000002678571,9.421579522347826e-12,0.0020000002857142
63000208.56,39.665,0.5880501468421052,0.0002210979426315,0.0026704597631578,-0.8088200968421052,10.0,1050.0,1051.0,1050.0,1051.0,900.0,900.0,900.0,900.0,900.0,900.0,2.0,1.0,1.0,0.6412584,0.13292362,4.7474337,0.01106326,-0.011365347,0.05303293,-0.008600014,-0.0782472,-0.12772198,24.43647546697549,54.61391541303154,14.12791,-14.23104,16.67,16.6695595,0.5180053499999999,0.5445991649999999,14.1599945,5.933544,95.384293,8.208037364124997e-11,0.0020000002814814,2.3197477266666662e-11,0.0020000003074074
63096628.6,39.665,0.5880859619999999,0.0002083796019999,0.0026674535,-0.8087940469999999,10.0,1050.0,1051.0,1050.0,1051.0,900.0,900.0,900.0,900.0,900.0,900.0,2.0,1.0,1.0,0.64348906,0.13242272,4.754371,0.011341959,-0.011269408,0.05266405,-0.0072797155,0.06769121,0.11172206,24.436475486896256,54.61391540650057,14.121764,-14.2347445,16.67,16.669601,0.5205078,0.54025483,14.132738,5.948084,95.385796,8.079644177111112e-11,0.002000000274074,3.581511935789473e-11,0.0020000002518518
63193034.02,39.665,0.5881304236842105,0.0002023293131578,0.0026653154157894,-0.8087617221052632,10.0,1050.0,1051.0,1050.0,1051.0,900.0,900.0,900.0,900.0,900.0,900.0,2.0,1.0,1.0,0.6456886,0.1316013,4.759725,0.01108425,-0.011841411,0.051558547,0.015858587,-0.04314917,-0.025072077,24.436475506817025,54.6139153999696,14.115618,-14.238449,16.67,16.6696355,0.5180053499999999,0.53682089,14.105595,5.9625435,95.387013,9.25902734464e-11,0.0020000002285714,5.1413994103703697e-11,0.0020000002071428
63289810.08,39.6675,0.5881627985,0.0002008210715,0.002663790455,-0.8087381889999999,10.0,1050.0,1051.0,1050.0,1051.0,900.0,900.0,900.0,900.0,900.0,900.0,2.0,1.0,1.0,0.6479447,0.13114673,4.7644887,0.011116627,-0.012023692,0.05031104,-0.02951306,0.023508271,-0.009879479,24.436475527017592,54.61391539669039,14.1106435,-14.240651,16.67,16.66967,0.5155029,0.53338695,14.078452,5.977003,95.38823,1.2947376977916667e-10,0.0020000002555555,2.118559129525e-11,0.0020000002481481
63386063.16,39.67,0.5881940615789474,0.0001889593863157,0.0026657599368421,-0.8087154500000001,10.0,1050.0,1051.0,1050.0,1051.0,900.0,900.0,900.0,900.0,900.0,900.0,2.0,1.0,1.0,0.650181,0.13093737,4.769675,0.011303788,-0.011881654,0.049758043,-0.023002656,-0.0020016737,-0.039054953,24.43647554721816,54.613915393411176,14.105669,-14.242853,16.67,16.669697499999998,0.5155029,0.531002255,14.051413,5.99147075,95.38923,7.895694982499999e-11,0.0020000002535714,3.107182912846153e-11,0.002000000375
63482087.02,39.67,0.5882308736842103,0.0001788856536842,0.0026733842157894,-0.8086886563157895,10.0,1050.0,1051.0,1050.0,1051.0,900.0,900.0,900.0,900.0,900.0,900.0,2.0,1.0,1.0,0.6520496,0.13075,4.776464,0.011284317,-0.01200633,0.04871864,0.050262198,-0.035219487,-0.111381404,24.436475563372188,54.61391539032502,14.099214,-14.2469935,16.67,16.669725,0.5155029,0.52861756,14.024374,6.0059385,95.39023,3.657973949754545e-11,0.0020000001851851,6.158891637847826e-11,0.0020000002518518
63577746.24,39.67,0.5882542154999999,0.00016938782,0.002674498665,-0.8086716624999999,10.0,1050.0,1051.0,1050.0,1051.0,900.0,900.0,900.0,900.0,900.0,900.0,2.0,1.0,1.0,0.6537735,0.13031252,4.782584,0.010984661,-0.011727565,0.04835193,-0.0360298,0.060129914,-0.028109478,24.436475579526217,54.613915387238855,14.092759,-14.251134,16.67,16.669749,0.5180053499999999,0.5270310300000001,13.9974375,6.0204005,95.391065,7.558245902631579e-11,0.0020000002814814,3.617312378e-11,0.0020000003222222
63674389.64,39.67,0.5882690557894737,0.0001647594810526,0.0026756920894736,-0.8086608552631579,10.0,1050.0,1051.0,1050.0,1051.0,900.0,900.0,900.0,900.0,900.0,900.0,2.0,1.0,1.0,0.6558601,0.13064954,4.78982,0.010732903,-0.011667691,0.047863025,0.0018974574,-0.09449667,-0.075356424,24.43647559748213,54.61391538962231,14.086764,-14.254475,16.67,16.669773,0.5205078,0.5254445,13.970501,6.0348625,95.3919,7.810382109166668e-11,0.0020000002035714,4.571532736076922e-11,0.002000000275
63769634.34,39.67,0.5882813215789474,0.0001662025826315,0.0026803069473684,-0.80865193,10.0,1050.0,1051.0,1050.0,1051.0,900.0,900.0,900.0,900.0,900.0,900.0,2.0,1.0,1.0,0.6577667,0.13079509,4.7945747,0.010310501,-0.011337612,0.046782933,0.020867497,-0.046858884,-0.08748042,24.43647561543804,54.61391539200576,14.080769,-14.257816,16.67,16.669793,0.5205078,0.52434275,13.943677,6.0493269000000005,95.392615,7.545787441292001e-11,0.0020000002576923,2.84609907048e-11,0.0020000002884615
63863736.62,39.67,0.5882952105263158,0.0001631574047368,0.0026776267263157,-0.8086418310526315,10.0,1050.0,1051.0,1050.0,1051.0,900.0,900.0,900.0,900.0,900.0,900.0,2.0,1.0,1.0,0.6599704,0.1305259,4.801019,0.010290885,-0.011495635,0.0466058,-0.009642333,-0.002298908,-0.0723603,24.43647563409456,54.61391538784176,14.075494,-14.2604645,16.67,16.669813,0.5205078,0.523241,13.916853,6.0637913,95.39333,5.854358625916666e-11,0.0020000002,3.8111302467555557e-11,0.00200000025
63960123.82,39.67,0.5883068015,0.000154414904,0.0026751274449999,-0.8086334235000001,10.0,1050.0,1051.0,1050.0,1051.0,900.0,900.0,900.0,900.0,900.0,900.0,2.0,1.0,1.0,0.6619157,0.12995201,4.805124,0.010197239,-0.011359794,0.04563543,-0.013664288,-0.026439112,-0.02733327,24.436475652751074,54.61391538367776,14.070219,-14.263113,16.67,16.6698295,0.5205078,0.52282343,13.8901405,6.078336,95.393925,7.073180957727272e-11,0.0020000002074074,4.5471091293478255e-11,0.002000000274074
64054945.52,39.67,0.5883109352631579,0.0001522543436842,0.0026686361052631,-0.8086304378947369,10.0,1050.0,1051.0,1050.0,1051.0,900.0,900.0,900.0,900.0,900.0,900.0,2.0,1.0,1.0,0.6640305,0.12937468,4.811538,0.009669492,-0.011408423,0.045403544,0.009311756,-0.008822154,-0.02116304,24.436475670822773,54.613915377246514,14.0644375,-14.265924,16.67,16.669846,0.5205078,0.52240586,13.863428,6.0928807,95.39452,8.401256141739128e-11,0.002000000274074,5.65486163496e-11,0.0020000001925925
64151287.74,39.67,0.5882950073684211,0.0001428543457894,0.0026657970631578,-0.8086420268421053,10.0,1050.0,1051.0,1050.0,1051.0,900.0,900.0,900.0,900.0,900.0,900.0,2.0,1.0,1.0,0.6659347,0.12864989,4.8166876,0.0093399305,-0.011661511,0.044635147,-0.00525977,-0.041580345,-0.1301892,24.436475688894472,54.61391537081528,14.058656,-14.268735,16.6693745,16.6697495,0.5205078,0.52176833,13.836817,6.107336050000001,95.391065,8.315956404549048e-11,0.0020000002142857,3.2206497111999995e-11,0.0020000002357142
64248220.92,39.678333333333335,0.5883023335,0.0001318496235,0.002659343745,-0.8086367154999999,10.0,1050.0,1051.0,1050.0,1051.0,900.0,900.0,900.0,900.0,900.0,900.0,2.0,1.0,1.0,0.668252,0.12784232,4.82245,0.009495974,-0.012064005,0.04432606,-0.01378617,-0.04701392,0.015830733,24.43647570899748,54.61391536228996,14.053769,-14.270678,16.668749,16.669653,0.5205078,0.5211308,13.810206,6.1217914,95.38761,7.919693748571428e-11,0.0020000002481481,2.8176745568e-11,0.0020000002666666
64344390.86,39.68666666666666,0.5883314884210528,0.0001300587386842,0.0026573152578947,-0.808615507368421,10.0,1050.0,1051.0,1050.0,1051.0,900.0,900.0,900.0,900.0,900.0,900.0,2.0,1.0,1.0,0.6704054,0.12692378,4.8264623,0.009677098,-0.011937176,0.04304998,0.043365177,0.008623578,-0.059845854,24.43647572910049,54.61391535376465,14.048882,-14.272621,16.6693745,16.6696825,0.5205078,0.52103565,13.783707,6.1363287,95.388682,7.770753609880001e-11,0.0020000002714285,3.8027165522307696e-11,0.0020000002607142
64441513.78,39.69499999999999,0.5883817499999999,0.0001316234115,0.002661097645,-0.8085789355000002,10.0,1050.0,1051.0,1050.0,1051.0,900.0,900.0,900.0,900.0,900.0,900.0,2.0,1.0,1.0,0.6732489,0.12635998,4.832218,0.009108405,-0.011994659,0.042447902,-0.0151643455,-0.049761157,-0.08351736,24.43647575145942,54.6139153485783,14.044593,-14.2738885,16.67,16.669712,0.5205078,0.5209405,13.757208,6.150866,95.389754,6.990700425095238e-11,0.0020000002555555,4.246325208333334e-11,0.0020000002777777
64536414.02,39.69499999999999,0.5884121252631579,0.0001369796547368,0.0026642732842105,-0.8085568105263158,10.0,1050.0,1051.0,1050.0,1051.0,900.0,900.0,900.0,900.0,900.0,900.0,2.0,1.0,1.0,0.6753778,0.12587371,4.835039,0.009228452,-0.011692843,0.041801613,-0.066081375,0.017605519,-0.0027144547,24.436475773818348,54.61391534339196,14.040304,-14.275156,16.67,16.669736,0.5180053499999999,0.5204573,13.730814,6.1653275,95.390587,5.655108960090909e-11,0.0020000002888888,4.0917353158695657e-11,0.0020000003999999
64632868.12,39.69499999999999,0.5884322020000001,0.000135423398,0.0026699743149999,-0.8085421879999999,10.0,1050.0,1051.0,1050.0,1051.0,900.0,900.0,900.0,900.0,900.0,900.0,2.0,1.0,1.0,0.67828697,0.12474154,4.8399115,0.010033253,-0.011979532,0.04033929,0.05736397,0.037788037,-0.093000166,24.43647579744634,54.61391533170048,14.0362545,-14.276092,16.67,16.669736,0.5180053499999999,0.5204573,13.730814,6.1653275,95.390587,6.97903396e-11,0.0020000002285714,4.7678001536e-11,0.0020000003464285
64729049.12,39.69499999999999,0.5884438963157895,0.0001297466482105,0.0026699219421052,-0.808533687368421,10.0,1050.0,1051.0,1050.0,1051.0,900.0,900.0,900.0,900.0,900.0,900.0,2.0,1.0,1.0,0.6806324,0.12350656,4.8431387,0.0095474925,-0.012458733,0.039361313,-0.12031359,-0.059662573,-0.1654239,24.43647582107434,54.613915320009,14.032205,-14.277028,16.67,16.66976,0.5155029,0.5199741,13.70442,6.179789,95.39142,9.046735216454544e-11,0.002000000174074,2.8652218482083333e-11,0.0020000002111111
64822147.44,39.69499999999999,0.5884577952631579,0.0001275579270526,0.0026755562736842,-0.808523542631579,10.0,1050.0,1051.0,1050.0,1051.0,900.0,900.0,900.0,900.0,900.0,900.0,2.0,1.0,1.0,0.6837551,0.12222935,4.8472342,0.01068228,-0.012518893,0.038888294,0.028255906,0.02995632,0.0009962325,24.43647584765429,54.61391530707034,14.0288005,-14.277283,16.6693745,16.6697235,0.5155029,0.5196386,13.6781265,6.19424675,95.390135,8.226702280476189e-11,0.0020000002214285,3.83207169e-11,0.0020000004035714
64918528.44,39.69499999999999,0.5884740075000001,0.0001219527026,0.002672533485,-0.8085117820000001,10.0,1050.0,1051.0,1050.0,1051.0,900.0,900.0,900.0,900.0,900.0,900.0,2.0,1.0,1.0,0.6865435,0.12088689,4.8499465,0.010766975,-0.013248021,0.03772386,-0.023769626,-0.09437619,-0.109782256,24.43647584765429,54.61391530707034,14.0288005,-14.277283,16.668749,16.669687,0.5155029,0.5193031,13.651833,6.2087045,95.38885,7.544879243863636e-11,0.0020000002333333,5.944114607826086e-11,0.0020000003222222
65014418.7,39.69499999999999,0.5884848868421052,0.0001197567065263,0.0026723912263157,-0.8085038415789473,10.0,1050.0,1051.0,1050.0,1051.0,900.0,900.0,900.0,900.0,900.0,900.0,2.0,1.0,1.0,0.687931295,0.1200022514999999,4.851931425,0.01070996925,-0.01342002525,0.037413607,0.00420478,-0.0278157589999999,-0.057358296625,24.43647587423424,54.61391529413168,14.025396,-14.277538,16.6693745,16.6697135,0.5155029,0.5187225,13.6256385,6.22312675,95.38980250000002,7.14323874675e-11,0.0020000003071428,2.0993511519615387e-11,0.0020000002392857
65109666.42,39.69499999999999,0.5884787375,0.0001123937077499,0.002668471805,-0.8085083195000001,10.0,1050.0,1051.0,1050.0,1051.0,900.0,900.0,900.0,900.0,900.0,900.0,2.0,1.0,1.0,0.68944234,0.11929079,4.853963,0.010866729,-0.013668676,0.036836844,-0.019163905,-0.03511523,-0.052055303,24.43647589869899,54.61391527790733,14.0220785,-14.277642,16.67,16.66974,0.5155029,0.5181419,13.599444,6.237549,95.390755,6.120852011842105e-11,0.0020000002666666,3.9283963109e-11,0.0020000003814814
65205897.42,39.69499999999999,0.5884795284210526,0.0001078251864736,0.0026645303368421,-0.8085077657894737,10.0,1050.0,1051.0,1050.0,1051.0,900.0,900.0,900.0,900.0,900.0,900.0,2.0,1.0,1.0,0.69198424,0.117601976,4.856582,0.010523893,-0.014244511,0.03620543,0.031496745,-0.011727936,-0.06859186,24.43647592316374,54.613915261682976,14.018761,-14.277746,16.67,16.6697625,0.513000475,0.51732165,13.573355,6.251906999999999,95.3915425,6.081483195157141e-11,0.0020000002285714,3.197851554863636e-11,0.0020000002928571
65302838.36,39.7025,0.5884775642105263,0.0001013469179473,0.0026683919052631,-0.8085091952631579,10.0,1050.0,1051.0,1050.0,1051.0,900.0,900.0,900.0,900.0,900.0,900.0,2.0,1.0,1.0,0.69449836,0.116199,4.858879,0.010501118,-0.014818537,0.03492677,-0.007040487,-0.07381233,-0.14314894,24.43647594475372,54.61391524833596,14.016679,-14.2763785,16.67,16.669785,0.51049805,0.5165014,13.547266,6.266265,95.39233,7.547720792764705e-11,0.0020000002321428,2.8856901831818183e-11,0.0020000003428571
65398974.64,39.71,0.5884896645,9.2297433e-05,0.002667959195,-0.8085003845000001,10.0,1050.0,1051.0,1050.0,1051.0,900.0,900.0,900.0,900.0,900.0,900.0,2.0,1.0,1.0,0.6967856,0.11489963,4.860746,0.010758149,-0.014859437,0.034089845,0.060761776,0.046255115,-0.072169185,24.4364759663437,54.61391523498894,14.014597,-14.275011,16.6693745,16.6697455,0.513000475,0.51669645,13.521281,6.2807185,95.3909225,8.035374438473684e-11,0.0020000002555555,1.919501474727273e-11,0.0020000003481481
65495980.42,39.71,0.5885235436842106,8.500991621052632e-05,0.0026692368105263,-0.8084757057894736,10.0,1050.0,1051.0,1050.0,1051.0,900.0,900.0,900.0,900.0,900.0,900.0,2.0,1.0,1.0,0.6992918,0.11371146,4.8633146,0.010120904,-0.015092178,0.03306037,-0.041201297,-0.039060917,-0.10111975,24.436475988544764,54.61391522244652,14.012464,-14.273976,16.668749,16.669706,0.5155029,0.5168915,13.495296,6.295172,95.389515,7.140609605016667e-11,0.0020000002035714,4.1259413513703697e-11,0.0020000003035714
65590636.88,39.71,0.5885608763157895,8.126881626315789e-05,0.0026766096105263,-0.8084485115789474,10.0,1050.0,1051.0,1050.0,1051.0,900.0,900.0,900.0,900.0,900.0,900.0,2.0,1.0,1.0,0.7017229,0.11236019,4.865012,0.010096514,-0.015720068,0.031630546,-0.009766974,-0.05971599,-0.06984146,24.436476010745828,54.61391520990411,14.010331,-14.272941,16.6693745,16.6696795,0.5155029,0.5170269,13.46941925,6.30964,95.3885625,5.852427273736841e-11,0.0020000002444444,3.502958651363636e-11,0.0020000003037037
65687476.06,39.71,0.588592605,8.287974895e-05,0.002674725145,-0.8084254135,10.0,1050.0,1051.0,1050.0,1051.0,900.0,900.0,900.0,900.0,900.0,900.0,2.0,1.0,1.0,0.70477223,0.11094004,4.8687215,0.010072812,-0.015436018,0.031168273,-0.018694226,0.05334733,0.05843944,24.43647603664957,54.61391519548536,14.007116,-14.2727715,16.67,16.669653,0.5155029,0.5171623,13.4435425,6.324108,95.38761,8.432431017708334e-11,0.0020000002444444,2.5297289429999994e-11,0.0020000002037037
65781574.34,39.71,0.5886064784210526,7.306523336842104e-05,0.0026686996842105,-0.8084153447368421,10.0,1050.0,1051.0,1050.0,1051.0,900.0,900.0,900.0,900.0,900.0,900.0,2.0,1.0,1.0,0.70748365,0.10944085,4.8714433,0.010398355,-0.015943192,0.030031225,-0.007313645,-0.06911761,-0.1383185,24.43647606255331,54.613915181066616,14.003901,-14.272602,16.67,16.6696825,0.5155029,0.5172563699999999,13.41776875,6.3385675,95.388682,7.243904610227273e-11,0.002000000276923,3.2369274994166666e-11,0.0020000002730769
65876767.9,39.71,0.5886137942105263,5.946993484210526e-05,0.0026589896842105,-0.8084100505263156,10.0,1050.0,1051.0,1050.0,1051.0,900.0,900.0,900.0,900.0,900.0,900.0,2.0,1.0,1.0,0.7102787,0.10768301,4.87592,0.0097586,-0.016049812,0.03016326,-0.065891914,0.031725675,0.07180007,24.43647608565733,54.61391516340053,14.0001025,-14.272976,16.67,16.669712,0.5155029,0.51735044,13.391995,6.353027,95.389754,7.84669369375e-11,0.0020000001714285,4.5026978370769226e-11,0.0020000003178571
65972906.98,39.71,0.5886217336842104,4.722393494736842e-05,0.0026608768105263,-0.8084042615789474,10.0,1050.0,1051.0,1050.0,1051.0,900.0,900.0,900.0,900.0,900.0,900.0,2.0,1.0,1.0,0.71262175,0.105864026,4.8790402,0.010040749,-0.01664967,0.029202685,0.031999573,0.00900119,-0.022893922,24.436476108761347,54.61391514573444,13.996304,-14.27335,16.6693745,16.6696795,0.5155029,0.5174157699999999,13.3663245,6.367498250000001,95.388587,5.999594068333333e-11,0.0020000002642857,3.80300284875e-11,0.0020000003642857
66068929.4,39.71,0.5886466515000001,3.4107266e-05,0.002658264185,-0.8083860889999999,10.0,1050.0,1051.0,1050.0,1051.0,900.0,900.0,900.0,900.0,900.0,900.0,2.0,1.0,1.0,0.71553266,0.10382654,4.8824263,0.010122534,-0.017142331,0.029159717,-0.028494986,0.027770925,0.09411675,24.43647613392,54.61391512537936,13.993368,-14.272761,16.668749,16.669647,0.5155029,0.5174811,13.340654,6.3819695,95.38742,6.765680281150001e-11,0.0020000002230769,3.8142313417619045e-11,0.002000000326923
66164041.9,39.71,0.5886842463157894,2.6627884157894737e-05,0.0026496420421052,-0.8083587499999999,10.0,1050.0,1051.0,1050.0,1051.0,900.0,900.0,900.0,900.0,900.0,900.0,2.0,1.0,1.0,0.7182168,0.10174277,4.8849115,0.010134429,-0.017140942,0.028828382,-0.036698926,0.111847736,0.13197598,24.436476159078648,54.61391510502428,13.990432,-14.272172,16.668749,16.6696205,0.5155029,0.5171789,13.315081,6.3963617500000005,95.386465,5.086179474761904e-11,0.0020000002107142,3.8115141129166656e-11,0.0020000003857142
66261166.3,39.71666666666667,0.5887239868421051,2.175038247368421e-05,0.0026529966157894,-0.8083298121052632,10.0,1050.0,1051.0,1050.0,1051.0,900.0,900.0,900.0,900.0,900.0,900.0,2.0,1.0,1.0,0.7206184,0.10015317,4.8879075,0.009776168,-0.017691601,0.027479965,-0.0052136383,0.0039413236,-0.072064996,24.436476178776147,54.61391508985543,13.988107,-14.2708825,16.668749,16.669594,0.5155029,0.5168767,13.289508,6.410754,95.38551,6.034305064090909e-11,0.0020000002357142,3.386287149416667e-11,0.0020000003035714
66357277.08,39.72333333333333,0.588751192,1.815577165e-05,0.00265735426,-0.8083099945000001,10.0,1050.0,1051.0,1050.0,1051.0,900.0,900.0,900.0,900.0,900.0,900.0,2.0,1.0,1.0,0.7225973,0.098671556,4.8895617,0.009243266,-0.017914493,0.02708682,-0.0022439414,0.024664393,0.043345083,24.43647619847365,54.613915074686574,13.985782,-14.269593,16.668749,16.6695195,0.5155029,0.5166668299999999,13.2640365,6.4251415000000005,95.3828635,8.869312566263157e-11,0.0020000002592592,3.448804424545454e-11,0.0020000003777777
66454330.44,39.73,0.5887765231578946,1.3154163331578946e-05,0.0026594696947368,-0.8082915336842105,10.0,1050.0,1051.0,1050.0,1051.0,900.0,900.0,900.0,900.0,900.0,900.0,2.0,1.0,1.0,0.72508174,0.09662603,4.892208,0.008986008,-0.018298827,0.026201766,0.06048651,0.0010599374,-0.034123216,24.43647622002236,54.61391505305582,13.9834365,-14.2684865,16.668749,16.669445,0.5155029,0.51645696,13.238565,6.439529,95.380217,7.6160220895e-11,0.0020000002321428,5.236026930000001e-11,0.0020000002857142
66550184.9,39.73,0.5887868184210526,8.710187721052632e-06,0.0026585174736842,-0.8082840447368421,10.0,1050.0,1051.0,1050.0,1051.0,900.0,900.0,900.0,900.0,900.0,900.0,2.0,1.0,1.0,0.7273895,0.094292015,4.8942523,0.008212984,-0.01874961,0.025439026,-0.026323069,-0.06288358,-0.007043195,24.436476241571057,54.613915031425066,13.981091,-14.26738,16.668749,16.669385,0.5155029,0.51631123,13.2131955,6.4539325000000005,95.378071,5.5568216145833324e-11,0.0020000002666666,3.9346198920030765e-11,0.0020000002629629
66645562.5,39.73,0.5888017335000001,5.2392713865e-06,0.002646826825,-0.8082732325,10.0,1050.0,1051.0,1050.0,1051.0,900.0,900.0,900.0,900.0,900.0,900.0,2.0,1.0,1.0,0.73022413,0.09226607,4.8976183,0.008487484,-0.018998496,0.024859628,-0.018554872,0.0044333986,-0.09139129,24.43647626832844,54.61391500926062,13.9781075,-14.266517749999998,16.668749,16.669325,0.5155029,0.5161655,13.187826,6.468336,95.375925,5.4894923694285694e-11,0.0020000002148148,4.807245927304348e-11,0.0020000004407407
66741953.46,39.73,0.5888273668421052,3.029176647368421e-06,0.0026424960631578,-0.8082545536842105,10.0,1050.0,1051.0,1050.0,1051.0,900.0,900.0,900.0,900.0,900.0,900.0,2.0,1.0,1.0,0.7333401,0.08980442,4.9002185,0.008777561,-0.020019336,0.024352817,0.030331654,-0.13524762,-0.09175763,24.43647629508582,54.61391498709619,13.975124,-14.2656555,16.668749,16.6692745,0.5155029,0.51641185,13.162563,6.4827995000000005,95.3741125,5.3287770257142855e-11,0.0020000003071428,2.4019279578161908e-11,0.0020000003678571
66836035.3,39.73,0.5888725610526316,5.181682410526316e-06,0.0026344622736842,-0.8082216252631579,10.0,1050.0,1051.0,1050.0,1051.0,900.0,900.0,900.0,900.0,900.0,900.0,2.0,1.0,1.0,0.73629534,0.0882688,4.9035025,0.008974639,-0.019696081,0.02443785,0.035001278,-0.017014684,-0.010369966,24.436476319502862,54.613914972186215,13.972735,-14.26431825,16.668749,16.6692745,0.5155029,0.51641185,13.162563,6.4827995000000005,95.3741125,9.286620583043479e-11,0.0020000002444444,1.6214428072307694e-11,0.0020000003222222
66931362.52,39.73,0.5889097310526316,8.492313984210525e-06,0.0026432361947368,-0.8081945400000001,10.0,1050.0,1051.0,1050.0,1051.0,900.0,900.0,900.0,900.0,900.0,900.0,2.0,1.0,1.0,0.7387702,0.08678562,4.9049973,0.008988899,-0.019546486,0.023312794,0.03655091,-0.010295032,-0.083595395,24.436476343919903,54.61391495727624,13.970346,-14.262981,16.668749,16.669224,0.5155029,0.5166582,13.1373,6.497263,95.3723,9.255336819565215e-11,0.0020000002,3.1928776904347824e-11,0.0020000002962962
67027928.54,39.73,0.5889294100000001,9.567346825e-06,0.00264433602,-0.8081801909999999,10.0,1050.0,1051.0,1050.0,1051.0,900.0,900.0,900.0,900.0,900.0,900.0,2.0,1.0,1.0,0.74188274,0.08498126,4.907292,0.008709149,-0.01965203,0.023088004,-0.0044192593,-0.01751539,-0.07228185,24.43647637080593,54.61391493889707,13.968435,-14.261108,16.668749,16.6692345,0.5180053499999999,0.51724635,13.112137,6.511813200000001,95.37268199999998,6.46347122435e-11,0.0020000002428571,3.003789537956522e-11,0.0020000003107142
67123071.6,39.73,0.5889511942105262,4.520643834736842e-06,0.0026383391157894,-0.8081643452631578,10.0,1050.0,1051.0,1050.0,1051.0,900.0,900.0,900.0,900.0,900.0,900.0,2.0,1.0,1.0,0.74474937,0.08306442,4.908819,0.008826728,-0.019500148,0.022495313,0.004629292,0.02088516,0.056617785,24.43647639769197,54.61391492051789,13.966524,-14.259235,16.668749,16.669245,0.5205078,0.5178345,13.086974,6.5263634,95.373064,5.920861211416666e-11,0.0020000002185185,3.114753635192308e-11,0.0020000002259259
67218875.88,39.73,0.5889746925,2.23535494035e-06,0.00263529216,-0.80814722,10.0,1050.0,1051.0,1050.0,1051.0,900.0,900.0,900.0,900.0,900.0,900.0,2.0,1.0,1.0,0.7473808,0.08167513,4.9108043,0.008986179,-0.019828191,0.021760324,0.037552595,-0.02093575,-0.045588773,24.43647641940229,54.61391490714662,13.9649785,-14.256965,16.668749,16.6692535,0.5180053499999999,0.5178258499999999,13.06191675,6.540823,95.37335000000002,8.950302027538461e-11,0.0020000001678571,2.3866478305555558e-11,0.002000000225
67315984.76,39.74,0.5889828115,-4.95860738485e-06,0.002641580475,-0.8081413005000002,10.0,1050.0,1051.0,1050.0,1051.0,900.0,900.0,900.0,900.0,900.0,900.0,2.0,1.0,1.0,0.7495775,0.080357164,4.91191,0.008651444,-0.020527646,0.021045033,-0.11027015,-0.23376314,0.10394875,24.43647641940229,54.61391490714662,13.9649785,-14.256965,16.668749,16.669262,0.5155029,0.5178172,13.0368595,6.5552826,95.373636,0.3258788473308668,0.3211080508185184,0.3285027273097039,0.315756868274074
67411880.14,39.75,0.5890886655,-1.0776971630000002e-05,0.0026778003249999,-0.8080639694999998,10.0,1513.0,1523.0,1514.0,1511.0,900.0,900.0,900.0,900.0,900.0,900.0,2.0,1.0,1.0,0.75100045,0.0790346,4.912407225,0.007476499425,-0.02225324075,0.017986967,-0.2095487012499999,-0.19778176425,-0.17282311975,24.436476441112607,54.61391489377535,13.963433,-14.254695,16.4856245,16.6463195,15.69531245,3.9410121,13.02473425,7.1736288,97.686818,0.5089543882142856,0.5206589707142857,0.5143308314285714,0.5127043742857142
67509057.24,39.75,0.5892079363157895,-1.182505055263158e-05,0.0020663784421052,-0.8079787636842105,10.0,1566.0,1575.0,1564.0,1568.0,900.0,900.0,900.0,900.0,900.0,900.0,2.0,1.0,1.0,0.7524929,0.07824647,4.9135656,0.010411928,-0.026976952,0.01478779,-0.9277876,0.041939903,0.030453494,24.43647646347448,54.61391487156186,13.9627135,-14.2515845,16.3025,16.623377,30.875122,7.364207,13.012609,7.791975,100.0,0.5733130314285715,0.5781197710714286,0.5799788582142856,0.5791052207142858
67603567.82,39.75,0.5898041505263157,-0.0004317062492105,0.0012316128531578,-0.8075450157894736,10.0,1626.0,1643.0,1643.0,1641.0,900.0,900.0,900.0,900.0,900.0,900.0,2.0,1.0,1.0,0.7545506,0.075859636,4.913349,0.0018564467,-0.021680174,0.014354721,0.16231035,-0.57836807,-0.78010595,24.436476485836355,54.61391484934836,13.961994,-14.248474,16.33375,16.6001805,27.782104500000003,10.156692,13.0441465,8.5101675,100.0,0.621902194074074,0.6161261977777778,0.6313325685185185,0.6205460581481481
67700549.12,39.75,0.588904461,-0.001630709415,-0.0020519827341999,-0.8081966795,10.0,1653.0,1635.0,1633.0,1627.0,900.0,900.0,900.0,900.0,900.0,900.0,2.0,1.0,1.0,0.7568259,0.07447238,4.9091043,-0.004816254,-0.015447982,-0.013931842,1.3834451,0.9518764,-2.2244067,24.43647649812207,54.61391483493881,13.9678725,-14.2389125,16.365,16.576984,24.689087,12.949177,13.075684,9.22836,100.0,0.6407135107407407,0.605496384074074,0.6009115585185185,0.5977663696296296
67795292.96,39.75,0.5859101538888889,-0.00121883,-0.0065604246888888,-0.8103470927777779,10.0,1662.0,1600.0,1592.0,1603.0,900.0,900.0,900.0,900.0,900.0,900.0,2.0,1.0,1.0,0.7572828,0.07294216,4.9015927,-0.017754572,-0.022482036,-0.014748435,-0.41962898,0.09661081,0.36299554,24.43647651040778,54.61391482052927,13.973751,-14.229351,16.394374999999997,16.5628605,21.9764405,14.0484165,13.09536,9.794439,100.0,0.6335117866666666,0.58573958,0.567451525925926,0.570076572962963
67889710.84,39.75,0.5827445305000001,-0.0041784008249999,-0.005260966785,-0.8126227484999999,10.0,1600.0,1639.0,1637.0,1540.0,900.0,900.0,900.0,900.0,900.0,900.0,2.0,1.0,1.0,0.75870687,0.07088954,4.8968573,-0.025115732,-0.032852486,0.024210207,0.48931867,-0.56027395,-1.4337391,24.43647651537497,54.613914801390194,13.978401,-14.220952,16.42375,16.548737,19.263794,15.147656,13.115036,10.360518,100.0,0.5961834992592593,0.5951666248148149,0.5977234503703704,0.5496301007407408
67985814.14,39.75,0.5830845489473684,-0.0034028911526315,-0.0016945353552631,-0.8124014900000001,10.0,1581.0,1615.0,1647.0,1580.0,900.0,900.0,900.0,900.0,900.0,900.0,2.0,1.0,1.0,0.75838745,0.069067106,4.892292,-0.028142678,-0.014371947,0.019650862,2.0172937,-0.058463503,-0.062411647,24.43647652034216,54.61391478225113,13.983051,-14.212553,16.410625,16.5360255,20.2122195,16.0221675,13.12855625,10.9421455,100.0,0.5797984053571429,0.5826449053571429,0.5954311757142857,0.5920950478571428
68082497.28,39.75,0.5858838889473684,-0.0007142526557157,0.0020454390147368,-0.8103903863157895,10.0,1559.0,1617.0,1623.0,1641.0,900.0,900.0,900.0,900.0,900.0,900.0,2.0,1.0,1.0,0.7602792,0.06852285,4.8879967,-0.041113097,-0.0062779407,0.028840091,-0.82427317,-0.50093406,0.90453094,24.43647654072552,54.6139147816452,13.988618,-14.203134,16.3975,16.523314,21.160645,16.896679,13.1420765,11.523773,100.0,0.5730617877777777,0.5729914322222223,0.6065178581481481,0.6050148337037037
68176997.0,39.75,0.58812676,-4.149782495e-05,0.002632542175,-0.8087642455000001,10.0,1590.0,1616.0,1621.0,1607.0,900.0,900.0,900.0,900.0,900.0,900.0,2.0,1.0,1.0,0.7629205,0.068944424,4.881158,-0.03135064,0.00078540476,0.010610264,-1.0182972,0.23082316,1.1731085,24.43647656110888,54.61391478103927,13.994185,-14.193715,16.396250000000002,16.5124885,21.075562,17.4960535,13.15752175,12.104407,100.0,0.5761330759259259,0.5905667959259259,0.6009123814814814,0.5890074348148148
68274140.56,39.75666616666667,0.5871439410526316,-0.0003034756636842,0.0031270278631578,-0.8094756442105262,10.0,1600.0,1672.0,1594.0,1579.0,900.0,900.0,900.0,900.0,900.0,900.0,2.0,1.0,1.0,0.7678503,0.06726769,4.874081,-0.015266143,-0.007573136,0.0130457105,0.21504287,-0.0019939775,0.75108707,24.43647660853881,54.613914753252935,14.0015425,-14.1829315,16.395,16.501663,20.990479,18.095428,13.172967,12.685041,100.0,0.5980841492857143,0.6100533735714285,0.5855292682142857,0.572355789642857
68370091.24,39.76333233333333,0.5842955395,-6.98935340685e-05,0.0025383319449999,-0.811535003,10.0,1653.0,1634.0,1604.0,1567.0,900.0,900.0,900.0,900.0,900.0,900.0,2.0,1.0,1.0,0.77346843,0.06331857,4.866444,-0.0070046685,-0.027845843,0.00474668,-1.0316958,-0.731895,0.33317372,24.436476655968747,54.6139147254666,14.0089,-14.172148,16.389374500000002,16.49174,21.2106935,18.576863,13.1885905,13.277799,100.0,0.6189400662962963,0.6122520496296296,0.573384585925926,0.5704590355555555
68467616.24,39.7699985,0.5809395710526315,0.0001387087855263,0.0018044056736842,-0.8139445915789474,10.0,1615.0,1627.0,1609.0,1614.0,900.0,900.0,900.0,900.0,900.0,900.0,2.0,1.0,1.0,0.7818982,0.05736523,4.860993,0.0060718637,-0.02823162,-0.0006351173,-0.30050972,-0.51076746,0.33342546,24.436476720351937,54.6139146737969,14.014539,-14.163394,16.383749,16.481817,21.430908,19.058298,13.204214,13.870557,100.0,0.6047201939285716,0.6136193242857144,0.5937564671428571,0.5760598410714285
68563155.4,39.7699985,0.5804174565,-1.9943194207500005e-05,0.0021593997049999,-0.814316236,10.0,1609.0,1637.0,1630.0,1605.0,900.0,900.0,900.0,900.0,900.0,900.0,2.0,1.0,1.0,0.7877866,0.052857097,4.8551655,0.012757699,-0.027591769,0.002347631,0.570732,0.8120855,-0.7200032,24.436476784735127,54.6139146221272,14.020178,-14.15464,16.380624500000003,16.4729195,21.5510255,19.4640865,13.2209535,14.4764815,100.0,0.6006328607407408,0.6094033381481482,0.6003467592592593,0.5914259107407408
68659182.12,39.7699985,0.5796359889473685,9.099477214210526e-05,0.0010603949721052,-0.8148744947368421,10.0,1639.0,1623.0,1602.0,1621.0,900.0,900.0,900.0,900.0,900.0,900.0,2.0,1.0,1.0,0.7965117,0.048644032,4.8498197,0.021315526,-0.03407486,-0.010905546,-0.15388298,-0.28113547,-0.44130018,24.436476851549248,54.61391458370729,14.027141,-14.144567,16.3775,16.464022,21.671143,19.869875,13.237693,15.082406,100.0,0.6131658837037037,0.6067220585185185,0.5942229874074074,0.5898207248148148
68754684.06,39.7699985,0.5794629442105264,0.0002626457875789,-0.0021552197368421,-0.8149950205263158,10.0,1652.0,1607.0,1608.0,1623.0,900.0,900.0,900.0,900.0,900.0,900.0,2.0,1.0,1.0,0.8026454,0.045078285,4.841239,0.01372896,-0.035593864,-0.014587167,-0.12496809,-0.52080756,0.98395073,24.43647691836337,54.613914545287386,14.034104,-14.134494,16.371875000000003,16.4558985,22.036499,20.2191685,13.2546995,15.7000135,100.0,0.6192127207142858,0.5915508146428571,0.5999571442857142,0.5976914571428572
68848340.9,39.7699985,0.5799663326315789,0.0010706288326315,-0.0044786716421052,-0.8146273005263158,10.0,1632.0,1622.0,1636.0,1625.0,900.0,900.0,900.0,900.0,900.0,900.0,2.0,1.0,1.0,0.8083476,0.041526232,4.8372073,0.0071206638,-0.03575121,-0.00409569,0.03508621,-0.5800921,0.41251475,24.436476960038668,54.61391451056528,14.038739499999998,-14.126861,16.371875000000003,16.4558985,22.036499,20.2191685,13.2546995,15.7000135,100.0,0.6199785922222222,0.5944051770370371,0.6084196396296297,0.6095819062962963
68944070.58,39.7699985,0.5806424957894737,-0.0007725662921052,-0.0049330086736842,-0.8141427889473686,10.0,1662.0,1637.0,1653.0,1631.0,900.0,900.0,900.0,900.0,900.0,900.0,2.0,1.0,1.0,0.81191355,0.03804816,4.831969,-0.0016021845,-0.037838057,-0.011679437,-0.03162206,-0.9733917,-0.31816623,24.43647700171397,54.61391447584317,14.043375,-14.119228,16.36625,16.447775,22.401855,20.568462,13.271706,16.317621,100.0,0.635135687777778,0.6034934214814816,0.6292088433333334,0.6007836074074073
69041004.82,39.7699985,0.580134235,-0.003308724835,-0.00567442756,-0.8144934644999999,10.0,1705.0,1619.0,1643.0,1620.0,900.0,900.0,900.0,900.0,900.0,900.0,2.0,1.0,1.0,0.8148549,0.034656253,4.828806,-0.027509583,-0.03817257,-0.032500807,-0.18004982,0.14456843,-0.14592491,24.43647701464775,54.61391443919786,14.0486835,-14.1110835,16.355,16.4391605,23.1175535,21.029018,13.29079075,16.975763,100.0,0.6694373903571428,0.6048242349999999,0.6287081482142858,0.6021348617857143
69136376.54,39.7699985,0.5767707842105264,-0.0040615312947368,-0.0089665353947368,-0.8168446036842106,10.0,1700.0,1641.0,1615.0,1588.0,900.0,900.0,900.0,900.0,900.0,900.0,2.0,1.0,1.0,0.8147899,0.030628648,4.821351,-0.03955947,-0.048639856,-0.05353154,0.6136753,-0.25970444,0.12251277,24.43647702758153,54.61391440255256,14.053992,-14.102939,16.34375,16.430546,23.833252,21.489574,13.3098755,17.633905,100.0,0.6785276803846154,0.6193801276923078,0.6001301249999998,0.5765415426923077
69232019.24,39.7699985,0.570551867,-0.00265208651,-0.009345113075,-0.8211996720000002,10.0,1707.0,1659.0,1606.0,1588.0,900.0,900.0,900.0,900.0,900.0,900.0,2.0,1.0,1.0,0.81537175,0.02663365,4.8160915,-0.061530374,-0.057998776,-0.04491681,-0.4621792,-0.11502088,1.38396,24.436477028380764,54.61391436075735,14.059472499999998,-14.09451,16.346875,16.424124,23.452881,21.66329,13.32912125,18.2641095,100.0,0.6936797596428572,0.6277486153571428,0.57892875,0.5784433653571429
69328803.6,39.77749925,0.5628219631578947,0.000490996583421,-0.009408394,-0.826519317368421,10.0,1718.0,1667.0,1612.0,1572.0,900.0,900.0,900.0,900.0,900.0,900.0,2.0,1.0,1.0,0.81496763,0.022166442,4.8103905,-0.069182605,-0.06305062,-0.060609065,0.09403887,0.33848456,-0.92173773,24.43647702918,54.61391431896213,14.064953,-14.086081,16.35,16.417702,23.07251,21.837006,13.348367,18.894314,100.0,0.7082838518518518,0.6435986274074074,0.5748819292592592,0.5772923588888889
69425009.86,39.785,0.5545506400000001,-0.0009424976965789,-0.0067769417,-0.8321152636842105,10.0,1736.0,1664.0,1625.0,1560.0,900.0,900.0,900.0,900.0,900.0,900.0,2.0,1.0,1.0,0.8183458,0.01820115,4.8050046,-0.09145958,-0.06822795,-0.05813267,0.017098004,-0.58092535,1.2369139,24.43647704800778,54.61391427790137,14.07035,-14.0782175,16.3462495,16.411279,23.250183,22.0765775,13.368062,19.548134,100.0,0.7075147010344827,0.6528083434482759,0.593245004827586,0.5494877920689656
69522084.24,39.785,0.5458866254999999,-0.0058628855499999,-0.0033867870499999,-0.837825249,10.0,1736.5,1669.75,1620.0,1575.0,900.0,900.0,900.0,900.0,900.0,900.0,2.0,1.0,1.0,0.81915474,0.013852943,4.799597,-0.119420335,-0.07448969,-0.044062294,-1.5928804,-0.6315551,1.7805634,24.43647706683556,54.61391423684062,14.075747,-14.070354,16.342499,16.404856,23.427856,22.316149,13.387757,20.201954,100.0,0.709771622962963,0.6637869733333334,0.5930457003703703,0.5522214981481481
69617652.48,39.785,0.537739762631579,-0.0047042720157894,-0.0028093180473684,-0.8430884142105263,10.0,1740.0,1683.0,1636.0,1580.0,900.0,900.0,900.0,900.0,900.0,900.0,2.0,1.0,1.0,0.82379305,0.011099967,4.7969213,-0.13270137,-0.07494858,-0.059740484,0.113233544,-0.4046022,0.76150465,24.43647709664219,54.61391420448095,14.079967,-14.0638015,16.335624,16.3983535,23.8307495,22.601801,13.408477,20.877062,100.0,0.7311532685714285,0.65384683,0.5896369846428572,0.5657941628571429
69713420.16,39.785,0.5296811084999999,-0.00234627867,-0.004773303965,-0.848175325,10.0,1752.0,1665.0,1607.0,1588.0,900.0,900.0,900.0,900.0,900.0,900.0,2.0,1.0,1.0,0.8266993300000001,0.008400051675,4.79400865,-0.13806295125,-0.0794791575,-0.07282519825,-0.311556449,-0.1912120425,0.352334312,24.43647709664219,54.61391420448095,14.079967,-14.0638015,16.328749,16.391851,24.233643,22.887453,13.429197,21.55217,100.0,0.7279605089285714,0.6634221403571428,0.5819062428571428,0.5696689485714286
69807254.44,39.785,0.5218135857894737,7.922661031578947e-05,-0.0042887007368421,-0.8530446115789473,10.0,1740.0,1684.0,1600.0,1591.0,900.0,900.0,900.0,900.0,900.0,900.0,2.0,1.0,1.0,0.82578343,0.007301135,4.7911563,-0.1485346,-0.08096569,-0.08462995,0.3202638,-0.30794117,-1.0928677,24.436477126448818,54.61391417212127,14.084187,-14.057249,16.3281245,16.386215,24.13855,23.0783155,13.450757,22.227976,100.0,0.7264606792307691,0.6662657919230769,0.5760205507692308,0.5695245715384616
69902980.48,39.785,0.5144162247368421,0.0008801892363157,-0.0031991388736842,-0.8575303289473684,10.0,1740.0,1679.0,1602.0,1583.0,900.0,900.0,900.0,900.0,900.0,900.0,2.0,1.0,1.0,0.8380661,0.0013461617,4.78836,-0.1515955,-0.08751267,-0.102868065,-0.08684274,0.5792503,-0.039863102,24.43647721926451,54.61391410928782,14.0876945,-14.0516555,16.3275,16.380579,24.043457,23.269178,13.472317,22.903782,100.0,0.7231666757142856,0.6728317653571427,0.5817022614285714,0.5587940503571428
69998606.36,39.785,0.5071850130000001,1.05140814e-05,-0.0002293609233608,-0.8618341389999999,10.0,1729.0,1698.0,1606.0,1574.0,900.0,900.0,900.0,900.0,900.0,900.0,2.0,1.0,1.0,0.8464247,-0.0054206452,4.7841415,-0.1511762,-0.08500188,-0.1328232,0.6682832,-0.6590507,-2.2189474,24.4364773120802,54.613914046454376,14.091202,-14.046062,16.326875,16.375761,23.9633785,23.383509,13.493531,23.574461,100.0,0.7211353925925926,0.6677704251851851,0.5821232762962963,0.5603844496296296
70096107.7,39.785,0.5014497663157895,-0.0005029502168421,-0.0011275753310526,-0.8651841678947367,10.0,1737.0,1669.0,1608.0,1581.0,900.0,900.0,900.0,900.0,900.0,900.0,2.0,1.0,1.0,0.86775714,-0.016798763,4.774821,-0.15564628,-0.07943788,-0.15249078,-0.63316756,0.27783248,0.87956214,24.4364774781714,54.61391393391375,14.101965,-14.033203,16.32625,16.370943,23.8833,23.49784,13.514745,24.24514,100.0,0.7196120732142859,0.6599788535714286,0.5871528121428572,0.5611590632142857
70190301.96,39.785,0.49628473,-0.0003952419115789,-0.0013969488631578,-0.8681567121052631,10.0,1742.0,1671.0,1594.0,1593.0,900.0,900.0,900.0,900.0,900.0,900.0,2.0,1.0,1.0,0.8833617,-0.028206551,4.7626157,-0.16219455,-0.073172234,-0.16312383,0.31889865,0.9904794,-0.88493633,24.4364776442626,54.61391382137312,14.112728,-14.020344,16.3225,16.3665685,24.010925,23.5832145,13.535495,24.91691,100.0,0.7201296274074075,0.6649531314814815,0.5764424403703703,0.567843444074074
70287296.94,39.7924995,0.4907119785,0.0004800570199999,0.0003463877754999,-0.8713188969999999,10.0,1732.0,1692.0,1602.0,1582.0,900.0,900.0,900.0,900.0,900.0,900.0,2.0,1.0,1.0,0.9063864,-0.03651167,4.748048,-0.15920998,-0.07433363,-0.16532612,-0.7198638,-0.46034262,0.18083854,24.43647782004348,54.61391374706376,14.12764925,-14.003423,16.31875,16.362194,24.13855,23.668589,13.556245,25.58868,100.0,0.71718295,0.6769960766666666,0.5819181,0.5513854792592593
70382906.94,39.799999,0.4839727431578947,-0.0004106513333947,0.0010778264921052,-0.875079074736842,10.0,1751.0,1691.0,1595.0,1575.0,900.0,900.0,900.0,900.0,900.0,900.0,2.0,1.0,1.0,0.9224536,-0.04325184,4.7327733,-0.16642414,-0.05597517,-0.17343216,0.47825927,0.057136413,-0.7257879,24.436477995824365,54.61391367275441,14.1425705,-13.986502,16.3275,16.358753999999998,23.250183,23.641334,13.578051,26.247335,100.0,0.7259237371428572,0.6757457707142857,0.5610790678571429,0.5455777314285715
70480421.9,39.799999,0.476553077,0.0010080823085,0.0019356693899999,-0.8791393989999999,10.0,1728.0,1695.0,1574.0,1556.0,900.0,900.0,900.0,900.0,900.0,900.0,2.0,1.0,1.0,0.9482209,-0.05508122,4.7163234,-0.16099389,-0.05168589,-0.15788114,0.27236453,0.22063772,0.4610153,24.436478233943728,54.61391354309485,14.15915475,-13.9676915,16.33625,16.355314,22.361816,23.614079,13.599857,26.90599,100.0,0.7160514792592593,0.6859924529629631,0.553930917037037,0.5386638922222222
70576441.06,39.799999,0.4695727457894736,0.0021105893894736,0.0019242715,-0.8828866389473683,10.0,1750.0,1713.0,1584.0,1567.0,900.0,900.0,900.0,900.0,900.0,900.0,2.0,1.0,1.0,0.9754089,-0.069503784,4.699604,-0.16268972,-0.039246485,-0.15806669,0.13813946,1.1690662,-0.6828022,24.43647847206309,54.613913413435306,14.175739,-13.948881,16.319375,16.350576500000003,23.645568500000003,23.838654,13.620231,27.6092125,100.0,0.7404943721428571,0.6976433110714286,0.5588749946428572,0.5485043675
70672537.16,39.799999,0.4633168947368422,0.0029937579736842,0.0008478190273684,-0.8861846889473685,10.0,1762.0,1706.0,1571.0,1580.0,900.0,900.0,900.0,900.0,900.0,900.0,2.0,1.0,1.0,1.0113441,-0.07695247,4.6860785,-0.15823439,-0.031421594,-0.15775347,-0.09844256,0.30158412,-1.165126,24.436478774908167,54.613913344346194,14.191531,-13.931552,16.3025,16.345839,24.929321,24.063229,13.640605,28.312435,100.0,0.7506247959259258,0.6970671296296296,0.5524654374074074,0.5572308937037037
70767062.28,39.799999,0.4571155336842105,0.0037068447263157,-0.0010834341889473,-0.8893967484210525,10.0,1734.0,1743.0,1606.0,1538.0,900.0,900.0,900.0,900.0,900.0,900.0,2.0,1.0,1.0,1.0427586,-0.08349214,4.66802,-0.15530743,-0.018153321,-0.17344916,-1.372167,0.88472205,0.27059004,24.43647907775324,54.61391327525708,14.207323,-13.914223,16.304375,16.3421965,24.6265255,24.145431,13.663120500000002,29.0018045,100.0,0.7295342784615385,0.7184105969230768,0.57273467,0.530832403076923
70861038.6,39.799999,0.4514028209999999,0.0070695228349999,-0.010860174215,-0.8922015615,10.0,1748.0,1698.0,1578.0,1561.0,900.0,900.0,900.0,900.0,900.0,900.0,2.0,1.0,1.0,1.0791314,-0.09567574,4.649417,-0.13231984,-0.018599497,-0.20339242,-0.16500673,0.4669576,-0.9459359,24.436479374609707,54.61391315316288,14.226944,-13.89349,16.304375,16.3421965,24.6265255,24.145431,13.663120500000002,29.0018045,100.0,0.7444985032142856,0.6920953375,0.5620159242857143,0.5456085864285715
70956964.18,39.799999,0.4459922926315789,0.0168756537105263,-0.0316961798421052,-0.8942982242105263,10.0,1768.0,1689.0,1559.0,1599.0,900.0,900.0,900.0,900.0,900.0,900.0,2.0,1.0,1.0,1.1087765,-0.10821234,4.628779,-0.08572397,-0.045369115,-0.21125709,1.015997,0.22306235,-0.5351811,24.436479671466174,54.61391303106869,14.246565,-13.872757,16.30625,16.338554,24.32373,24.227633,13.685636,29.691174,100.0,0.7567981755555555,0.6726695392592593,0.5408971525925926,0.5747406511111112
71054015.64,39.799999,0.4406758495,0.0224025523,-0.0413198077,-0.8964320195,10.0,1751.0,1694.0,1575.0,1591.0,900.0,900.0,900.0,900.0,900.0,900.0,2.0,1.0,1.0,1.1459538,-0.1293527,4.6068687,-0.014245195,-0.09554803,-0.21685603,0.29946297,-0.23794486,0.26503697,24.436480008349623,54.61391280127282,14.269135,-13.850386,16.303125,16.335259999999998,24.4113155,24.278809000000003,13.7071635,30.377841,100.0,0.7445461425000001,0.6725128535714286,0.5505112032142857,0.5711817282142857
71149717.94,39.799999,0.4356016283333333,0.0229044752777777,-0.0411919097777777,-0.8989025288888889,10.0,1750.0,1690.0,1578.0,1591.0,900.0,900.0,900.0,900.0,900.0,900.0,2.0,1.0,1.0,1.1836959,-0.15473871,4.583638,0.063763335,-0.15141325,-0.22412929,-0.25194356,-0.89404756,0.98907983,24.43648034523308,54.61391257147695,14.291705,-13.828015,16.3,16.331966,24.498901,24.329985,13.728691,31.064508,100.0,0.7389181607407407,0.673832407037037,0.5509375733333334,0.5741791377777778
71245146.88,39.808332666666665,0.430682649,0.0205126335,-0.0354975570499999,-0.9015680435,10.0,1746.0,1700.0,1571.0,1600.0,900.0,900.0,900.0,900.0,900.0,900.0,2.0,1.0,1.0,1.2330123,-0.18984944,4.5609765,0.14089224,-0.19678324,-0.21739836,1.3136296,0.21148235,0.44366637,24.43648077948398,54.613912217372665,14.3137,-13.806932,16.2987495,16.3290775,24.4963985,24.3498135,13.750087,31.7479065,100.0,0.7330831567857141,0.6814586589285714,0.5540970689285715,0.5733556278571429
71341615.26,39.81666633333334,0.4259649431578947,0.0186901482105263,-0.0304363740526315,-0.9040326110526316,10.0,1752.0,1692.0,1583.0,1605.0,900.0,900.0,900.0,900.0,900.0,900.0,2.0,1.0,1.0,1.2802689,-0.22643359,4.5396476,0.19206275,-0.23450498,-0.2057601,0.7245229,-0.043408453,-0.071764596,24.436481213734883,54.61391186326838,14.335695,-13.785849,16.297499,16.326189,24.493896,24.369642,13.771483,32.431305,100.0,0.7367828625925925,0.6782582688888888,0.5604269685185185,0.5793296203703704
71438101.72,39.825,0.4217601404999999,0.015360202525,-0.0269469530499999,-0.9061732735,10.0,1751.0,1699.0,1601.0,1588.0,900.0,900.0,900.0,900.0,900.0,900.0,2.0,1.0,1.0,1.3285648,-0.26206088,4.5194855,0.23734795,-0.26356253,-0.2024108,1.2933085,0.7856606,-0.37820727,24.43648163511392,54.61391151449174,14.355897,-13.766984,16.292499499999998,16.323038,24.7491455,24.449241,13.793124,33.12574,100.0,0.7389545750000001,0.6816962507142857,0.5755198414285715,0.5718568003571428
71534898.84,39.825,0.417574747368421,0.0092802136842105,-0.0222305212105263,-0.908320145263158,10.0,1751.0,1694.0,1605.0,1585.0,900.0,900.0,900.0,900.0,900.0,900.0,2.0,1.0,1.0,1.3739793,-0.2970498,4.499244,0.2638385,-0.28692418,-0.2173106,0.36702818,0.20185068,-0.12168371,24.43648205649295,54.6139111657151,14.376099,-13.748119,16.2875,16.319887,25.004395,24.52884,13.814765,33.820175,100.0,0.7406551577777778,0.6798848377777779,0.5884054540740741,0.5590141399999999
71631327.12,39.825,0.4137104865,0.005684837045,-0.0207338623,-0.9101537020000002,10.0,1754.0,1695.0,1602.0,1588.0,900.0,900.0,900.0,900.0,900.0,900.0,2.0,1.0,1.0,1.4230212,-0.33124375,4.475969,0.27483138,-0.30748042,-0.22844675,0.35385495,-0.37064502,-1.4495485,24.43648244115395,54.61391085652899,14.39754,-13.728257500000002,16.286250000000003,16.3169105,25.004395,24.5990615,13.837043,34.5182025,100.0,0.7410138432142855,0.6770530517857143,0.5835673139285715,0.5641786557142858
71726465.9,39.825,0.4097625863157895,0.0061831789157894,-0.0227271734210526,-0.9118868268421052,10.0,1759.0,1692.0,1592.0,1590.0,900.0,900.0,900.0,900.0,900.0,900.0,2.0,1.0,1.0,1.459524,-0.35965016,4.4563627,0.2921224,-0.32603315,-0.2343722,0.28669733,-0.07002803,-0.7230528,24.43648282581495,54.61391054734288,14.418981,-13.708396,16.285,16.313934,25.004395,24.669283,13.859321,35.21623,100.0,0.7473022126923077,0.6743243499999999,0.5739325084615385,0.568298975
71819452.0,39.825,0.405726119,0.008469271645,-0.02401853315,-0.913638666,10.0,1757.5,1696.0,1592.0,1591.0,900.0,900.0,900.0,900.0,900.0,900.0,2.0,1.0,1.0,1.4808745,-0.36746968,4.44327095,0.29967758,-0.33020651,-0.2365712075,0.2412665275,-0.1692331275,-0.7957885225000001,24.43648318216889,54.61391035094731,14.442829,-13.687050500000002,16.281875,16.311087,25.147034,24.7411265,13.8815,35.917825,100.0,0.7450914307142859,0.6802381353571427,0.5703904678571428,0.57292556
