timestamp,temperature,q[0],q[1],q[2],q[3],noutputs,output[0],output[1],output[2],output[3],output[4],output[5],output[6],output[7],output[8],output[9],arming_state,nav_state,vehicle_type,x,y,z,vx,vy,vz,ax,ay,az,lat,lon,alt,alt_ellipsoid,voltage_v,voltage_filtered_v,current_a,current_filtered_a,current_average_a,discharged_mah,remaining,control[0],control[1],control[2],control[3]
60198795.62,,0.6129799533333333,0.00024353205055555556,0.0026097691944444446,-0.7900941088888889,10.0,974.0,976.0,974.0,976.0,900.0,900.0,900.0,900.0,900.0,900.0,2.0,1.0,1.0,0.59105116,0.14253779,4.54689,0.013481472,-0.012058817,0.07844083,0.0027318562,-0.0063579376,-0.007519484,24.43647501545079,54.61391550800118,14.328453,-14.0890255,16.67125,16.67209,0.44543457,0.4114281,14.941947,5.4862537,0.9547468,8.543886527565216e-11,0.002000000230769231,5.766814988208695e-11,0.002000000342307692
60301112.94,,0.6119650342105263,0.00025043502999999996,0.0026168947736842107,-0.7908803268421053,10.0,1005.0,1006.0,1005.0,1006.0,900.0,900.0,900.0,900.0,900.0,900.0,,,,0.5924551,0.14257567,4.5566735,0.013272131,-0.011978905,0.077691324,0.003423186,-0.009683669,-0.020277612,,,,,16.67125,16.672014,0.44543457,0.41709584,14.9130125,5.498687,0.9547196,8.065465389951853e-11,0.0020000002535714287,4.212712965377779e-11,0.0020000002964285714
60394794.36,,0.6104937463157895,0.0002475284447368421,0.0026235272789473687,-0.7920165436842105,10.0,1034.0,1035.0,1034.0,1035.0,900.0,900.0,900.0,900.0,900.0,900.0,2.0,1.0,1.0,0.5938205,0.1424554,4.564719,0.012822688,-0.0116335405,0.07671771,-0.0051903715,0.0012267899,-0.012935489,24.43647504035616,54.613915507187336,14.310624,-14.103314,16.67125,16.671944,0.4404297,0.42098483,14.884135,5.510987,0.95469433,7.557197333850001e-11,0.0020000002153846156,2.212111806095238e-11,0.0020000003653846154
60492275.64,,0.6089175145,0.00023837019750000003,0.002613075385,-0.79322903,10.0,1050.0,1051.0,1050.0,1051.0,900.0,900.0,900.0,900.0,900.0,900.0,,,,0.5955363,0.1413977,4.5753117,0.013406728,-0.011973963,0.076058365,0.22301255,-0.04568232,-0.13417558,,,,,,,,,,,,1.1570525335e-10,0.002000000178571429,1.6391429286073797e-05,0.001990048557142857
60587365.5,,0.6076355152631578,0.00022656663947368422,0.0026037714789473683,-0.7942116868421052,10.0,1050.0,1052.0,1050.0,1050.0,900.0,900.0,900.0,900.0,900.0,900.0,,,,0.5969134,0.14023337,4.5819087,0.013642986,-0.01222625,0.07444758,0.028348291,-0.20154639,-0.25490668,24.43647506817114,54.613915485237904,14.293434,-14.1168,16.66625,16.67116,0.8458252,0.52021176,14.826903,5.552058,0.9544144,8.439215405078843e-05,0.0020750153777777777,7.441908523065427e-05,0.001792088516145002
60685258.64,,0.6067531865,0.00022586233799999996,0.00260604814,-0.7948859885,10.0,1050.0,1051.0,1050.0,1051.0,900.0,900.0,900.0,900.0,900.0,900.0,,,,0.5986849,0.139764,4.5912724,0.011862486,-0.012341919,0.07523896,-0.4298975,-0.06484714,0.06999815,,,,,,,,,,,,3.383788351722118e-05,0.0020253786678571433,3.895196823786083e-05,0.0019186385855519802
60779902.44,39.629999,0.6060725988888889,0.0002255394077777778,0.0026145433444444443,-0.7954050172222222,10.0,1050.0,1051.0,1050.0,1051.0,900.0,900.0,900.0,900.0,900.0,900.0,,,,0.60023373,0.13954692,4.5986347,0.012680084,-0.012541972,0.07424941,0.021421699,-0.019602219,0.21596633,24.436475098031647,54.61391547845707,14.276709,-14.129562,16.668749,16.67074,0.66064453,0.5638169,14.770788,5.589083,0.9542647,3.9475975670684543e-07,0.0020003341807692306,6.6244491335e-11,0.0019993325192307694
60885510.5,,0.6050432090476191,0.0002308562038095238,0.002630503580952381,-0.7961881104761904,,,,,,,,,,,,2.0,1.0,1.0,,,,,,,,,,,,,,,,,,,,,1.8941542113215504e-05,0.0020135298821428575,6.120234713461538e-11,0.0019729411464285717
60987569.12,,0.6036565831578947,0.00023548045631578948,0.002637485047368421,-0.7972399778947369,10.0,1050.0,1051.0,1050.0,1051.0,900.0,900.0,900.0,900.0,900.0,900.0,,,,0.60355955,0.13977736,4.6137285,0.011759129,-0.011742166,0.071592934,0.034171395,0.08660375,0.08035575,24.436475127941463,54.613915480733446,14.261615,-14.140964,16.67,16.670507,0.5755615,0.5771373,14.714487,5.6231966,0.95418125,5.16346425572665e-11,0.002000000233333333,7.346013360000001e-11,0.002000000362962963
61085030.06,,0.602583916,0.00023205176350000003,0.0026363703949999996,-0.7980511365,10.0,1050.0,1051.0,1050.0,1051.0,900.0,900.0,900.0,900.0,900.0,900.0,,,,0.60508984,0.13948196,4.622477,0.012030311,-0.011473777,0.07026264,0.05875834,0.027316801,-0.047424268,,,,,,,,,,,,5.90047523347619e-11,0.0020000002464285716,6.863799719636364e-11,0.0020000002500000003
61180774.94,,0.6018633000000001,0.00022633438157894736,0.002640002942105263,-0.798594715263158,10.0,1050.0,1051.0,1050.0,1051.0,900.0,900.0,900.0,900.0,900.0,900.0,,,,0.60650545,0.13890365,4.62931,0.01246457,-0.011146651,0.06906968,0.0038995573,0.09447848,-0.044895783,24.43647515443457,54.61391547210281,14.246033,-14.15262,16.67,16.67042,0.5605469,0.57345825,14.658092,5.6547565,0.95415026,5.833609923333332e-11,0.0020000002148148153,7.63492299076923e-11,0.0020000003333333336
61278005.32,,0.601094151,0.000227718221,0.002634886045,-0.7991738245,10.0,1050.0,1051.0,1050.0,1051.0,900.0,900.0,900.0,900.0,900.0,900.0,,,,0.6088274,0.1383797,4.637992,0.01286869,-0.011308209,0.06827188,-0.01574919,0.0149962045,-0.018897006,,,,,,,,,,,,5.440149721428571e-11,0.0020000002214285717,6.186909690772727e-11,0.0020000002714285715
61373844.38,,0.6001801705555556,0.0002322560911111111,0.0026268205333333334,-0.7998604816666667,10.0,1050.0,1051.0,1050.0,1051.0,900.0,900.0,900.0,900.0,900.0,900.0,2.0,1.0,1.0,0.6110749,0.13766247,4.6434035,0.01311252,-0.011480079,0.06709589,0.044979293,0.014705321,0.031927507,24.43647519552881,54.613915459842346,14.231939,-14.162767,16.668749,16.670233,0.5605469,0.5695132,14.6018715,5.6860657,0.9540835,4.819534702500001e-11,0.002000000237037037,5.957800880833333e-11,0.0020000004
61469281.26,,0.5990819144999999,0.00023562588750000003,0.002630146015,-0.800683304,10.0,1050.0,1051.0,1050.0,1051.0,900.0,900.0,900.0,900.0,900.0,900.0,,,,0.6133584,0.13723558,4.6518583,0.012668207,-0.011612012,0.06622046,-0.032163814,0.0044822954,0.06371005,,,,,,,,,,,,4.747903414e-11,0.002000000225,4.9258203366666666e-11,0.0020000002714285715
61565855.16,,0.5977730694736842,0.00023949400842105265,0.002635440489473684,-0.8016609252631578,10.0,1050.0,1051.0,1050.0,1051.0,900.0,900.0,900.0,900.0,900.0,900.0,,,,0.6152279,0.13674551,4.6570554,0.012609342,-0.012000269,0.06433828,-0.004867475,-0.04552531,-0.12853655,24.43647523287723,54.61391545078455,14.218288,-14.1720295,16.668749,16.670078,0.5605469,0.56746864,14.545885,5.717508,0.9540282,6.859650106e-11,0.0020000001592592595,7.36065535244e-11,0.002000000288888889
61662294.44,,0.596514623,0.00024195036500000003,0.00263969518,-0.802597764,10.0,1050.0,1051.0,1050.0,1051.0,900.0,900.0,900.0,900.0,900.0,900.0,,,,0.61735946,0.13620202,4.664816,0.012509291,-0.012066018,0.06382421,-0.03699458,0.02982841,0.042740244,,,,,,,,,,,,6.353504174136363e-11,0.0020000002464285716,4.825986901269231e-11,0.0020000002500000003
61758749.7,39.64,0.5954225738888889,0.0002416898427777778,0.0026485036222222225,-0.8034082672222221,10.0,1050.0,1051.0,1050.0,1051.0,900.0,900.0,900.0,900.0,900.0,900.0,,,,0.6193296,0.13548052,4.6701055,0.012969118,-0.011933567,0.06279388,0.077671535,0.024559911,0.049627714,24.43647526976464,54.61391543828888,14.205238,-14.180862,16.67,16.66996,0.5605469,0.5653537,14.490112,5.74881,0.95398575,6.188992193636364e-11,0.0020000002230769233,5.766729057272727e-11,0.0020000003961538463
61851353.72,,0.5944546959999999,0.00023566785150000002,0.002653240005,-0.8041246474999999,10.0,1050.0,1051.0,1050.0,1051.0,900.0,900.0,900.0,900.0,900.0,900.0,,,,0.62091154,0.13512632,4.6779556,0.012701812,-0.011899576,0.061457228,-0.006842204,-0.045267697,-0.15591711,,,,,,,,,,,,9.35467179e-11,0.0020000002785714286,2.568991733090909e-11,0.002000000239285714
61947274.0,,0.5935010436842105,0.00022549506578947368,0.002663270105263158,-0.8048287757894738,10.0,1050.0,1051.0,1050.0,1051.0,900.0,900.0,900.0,900.0,900.0,900.0,2.0,1.0,1.0,0.6222472,0.13471295,4.6838484,0.011802973,-0.011676427,0.06133068,0.017892407,-0.006128873,-0.050474316,24.436475296003675,54.61391543070672,14.191495,-14.190316,16.668749,16.669748,0.5605469,0.56388503,14.434561,5.780221,0.9539104,8.138471275e-11,0.0020000002384615388,5.0845181633333325e-11,0.0020000003576923077
62042390.9,,0.5926905425,0.0002307486875,0.0026706025250000003,-0.8054258335,10.0,1050.0,1051.0,1050.0,1051.0,900.0,900.0,900.0,900.0,900.0,900.0,,,,0.6242743,0.13448432,4.691365,0.012241294,-0.011825247,0.060693886,0.02375724,-0.08978487,-0.1264254,,,,,,,,,,,,9.617372232160001e-11,0.0020000001892857147,6.938459840384616e-11,0.0020000002607142857
62140026.24,,0.592084842631579,0.00023222782789473684,0.0026615949684210523,-0.8058712236842106,10.0,1050.0,1051.0,1050.0,1051.0,900.0,900.0,900.0,900.0,900.0,900.0,,,,0.6263639,0.13410324,4.696868,0.012380544,-0.011776041,0.060180232,-0.01661124,0.055471968,0.1056647,24.43647533302564,54.61391542468394,14.178475,-14.198934,16.668749,16.669678,0.5605469,0.5628651,14.379232,5.8115506,0.95388514,8.268308398809524e-11,0.0020000002037037037,4.3430783200000005e-11,0.0020000003111111113
62235414.76,,0.5913551715,0.00023459862750000002,0.00265805685,-0.8064067845,10.0,1050.0,1051.0,1050.0,1051.0,900.0,900.0,900.0,900.0,900.0,900.0,,,,0.6284363,0.13403274,4.7042875,0.011944419,-0.011251725,0.059194833,-0.07046885,0.01240448,-0.010300399,,,,,,,,,,,,6.813984973573914e-11,0.0020000002285714288,5.663654692039999e-11,0.0020000003750000003
62333276.14,,0.5904104468421053,0.0002369313510526316,0.002659107915789474,-0.8070986910526317,10.0,1050.0,1051.0,1050.0,1051.0,900.0,900.0,900.0,900.0,900.0,900.0,,,,0.6303255,0.13384238,4.7098355,0.0118687665,-0.011437028,0.05824786,-0.0020568497,0.031840425,0.07893117,24.43647536865337,54.61391542210714,14.165508,-14.207422,16.668749,16.669516,0.56555176,0.5629909,14.324123,5.842982,0.95382696,5.815279841590909e-11,0.0020000002444444448,4.909770436818181e-11,0.002000000362962963
62427867.16,,0.589421097368421,0.00023647390157894744,0.0026572404,-0.8078215336842106,10.0,1050.0,1051.0,1050.0,1051.0,900.0,900.0,900.0,900.0,900.0,900.0,2.0,1.0,1.0,0.6321736,0.13365667,4.7172904,0.011686019,-0.011769761,0.057867277,0.06579532,-0.028911784,0.05758167,,,,,,,,,,,,5.3645846289130427e-11,0.0020000002392857145,5.97654978624e-11,0.0020000003535714287
62525100.38,,0.5885947914999999,0.000232245654,0.002660098075,-0.808423827,,,,,,,,,,,,,,,0.63401127,0.13321477,4.723728,0.0115874875,-0.011619979,0.05656348,-0.02058832,-0.02372037,0.036344282,24.436475401800315,54.613915415907584,14.151615,-14.216763,16.668749,16.669485,0.56555176,0.5630783,14.269244,5.874439,0.9538165,1.0333918195454545e-10,0.002000000174074074,2.6564043044583336e-11,0.00200000022962963
62619636.82,,0.5881337935,0.0002196542465,0.00266261771,-0.808759274,10.0,1050.0,1051.0,1050.0,1051.0,900.0,900.0,900.0,900.0,900.0,900.0,,,,,,,,,,,,,,,,,,,,,,,,9.842678603976191e-11,0.0020000002137931035,2.8438743702336e-11,0.002000000275862069
62716044.08,,0.5879843694736842,0.0002188459389473684,0.002661953710526316,-0.808867897368421,10.0,1050.0,1051.0,1050.0,1051.0,900.0,900.0,900.0,900.0,900.0,900.0,,,,0.6360238,0.13312444,4.730975,0.011648433,-0.01136386,0.055768315,0.037646294,0.054041393,-0.01013914,,,,,16.668749,16.669418,0.5605469,0.5626564,14.241892,5.890084,0.95379263,1.2710382276190477e-10,0.002000000235714286,5.769022980476191e-12,0.0020000002750000002
62809745.62,39.665,0.5879757178947368,0.00021949567473684208,0.0026672693368421053,-0.8088741784210526,10.0,1050.0,1051.0,1050.0,1051.0,900.0,900.0,900.0,900.0,900.0,900.0,,,,0.6378879,0.13280593,4.735794,0.011422264,-0.011504897,0.054405406,-0.0100356545,-0.08019142,-0.111483164,24.436475436663656,54.613915411868994,14.139549,-14.224159,,,,,,,,1.1711357904761906e-10,0.002000000276923077,4.999958155166667e-12,0.002000000334615385
62905463.72,,0.5880131026315789,0.00022096476210526315,0.002666424894736842,-0.8088470152631578,10.0,1050.0,1051.0,1050.0,1051.0,900.0,900.0,900.0,900.0,900.0,900.0,,,,0.6396699,0.13291334,4.742172,0.011569544,-0.011098548,0.053851232,0.04809732,0.088809036,-0.06936938,,,,,16.67,16.669518,0.5155029,0.5489435,14.187251,5.919004,0.9538279,1.1032541428600001e-10,0.0020000002678571428,9.421579522347826e-12,0.002000000285714286
63000208.56,,0.5880501468421052,0.00022109794263157893,0.0026704597631578945,-0.8088200968421052,10.0,1050.0,1051.0,1050.0,1051.0,900.0,900.0,900.0,900.0,900.0,900.0,2.0,1.0,1.0,0.6412584,0.13292362,4.7474337,0.01106326,-0.011365347,0.05303293,-0.008600014,-0.0782472,-0.12772198,24.43647546697549,54.61391541303154,14.12791,-14.23104,,,,,,,,8.208037364124998e-11,0.002000000281481482,2.3197477266666666e-11,0.0020000003074074077
63096628.6,,0.5880859619999999,0.00020837960199999997,0.0026674535000000004,-0.8087940469999999,10.0,1050.0,1051.0,1050.0,1051.0,900.0,900.0,900.0,900.0,900.0,900.0,,,,0.64348906,0.13242272,4.754371,0.011341959,-0.011269408,0.05266405,-0.0072797155,0.06769121,0.11172206,,,,,16.67,16.669601,0.5205078,0.54025483,14.132738,5.948084,0.95385796,8.079644177111112e-11,0.0020000002740740742,3.5815119357894735e-11,0.002000000251851852
63193034.02,,0.5881304236842105,0.00020232931315789475,0.0026653154157894737,-0.8087617221052632,10.0,1050.0,1051.0,1050.0,1051.0,900.0,900.0,900.0,900.0,900.0,900.0,,,,0.6456886,0.1316013,4.759725,0.01108425,-0.011841411,0.051558547,0.015858587,-0.04314917,-0.025072077,24.436475506817025,54.6139153999696,14.115618,-14.238449,,,,,,,,9.259027344640001e-11,0.0020000002285714288,5.14139941037037e-11,0.0020000002071428576
63289810.08,,0.5881627985,0.0002008210715,0.002663790455,-0.8087381889999999,10.0,1050.0,1051.0,1050.0,1051.0,900.0,900.0,900.0,900.0,900.0,900.0,,,,0.6479447,0.13114673,4.7644887,0.011116627,-0.012023692,0.05031104,-0.02951306,0.023508271,-0.009879479,,,,,16.67,16.66967,0.5155029,0.53338695,14.078452,5.977003,0.9538823,1.2947376977916667e-10,0.0020000002555555555,2.118559129525e-11,0.002000000248148148
63386063.16,,0.5881940615789474,0.00018895938631578946,0.002665759936842105,-0.8087154500000001,10.0,1050.0,1051.0,1050.0,1051.0,900.0,900.0,900.0,900.0,900.0,900.0,,,,0.650181,0.13093737,4.769675,0.011303788,-0.011881654,0.049758043,-0.023002656,-0.0020016737,-0.039054953,24.43647554721816,54.613915393411176,14.105669,-14.242853,,,,,,,,7.895694982499999e-11,0.0020000002535714287,3.1071829128461535e-11,0.0020000003750000003
63482087.02,,0.5882308736842103,0.0001788856536842105,0.0026733842157894735,-0.8086886563157895,10.0,1050.0,1051.0,1050.0,1051.0,900.0,900.0,900.0,900.0,900.0,900.0,2.0,1.0,1.0,0.6520496,0.13075,4.776464,0.011284317,-0.01200633,0.04871864,0.050262198,-0.035219487,-0.111381404,,,,,16.67,16.669725,0.5155029,0.52861756,14.024374,6.0059385,0.9539023,3.657973949754545e-11,0.0020000001851851854,6.158891637847826e-11,0.002000000251851852
63577746.24,,0.5882542154999999,0.00016938782,0.0026744986650000004,-0.8086716624999999,10.0,1050.0,1051.0,1050.0,1051.0,900.0,900.0,900.0,900.0,900.0,900.0,,,,0.6537735,0.13031252,4.782584,0.010984661,-0.011727565,0.04835193,-0.0360298,0.060129914,-0.028109478,24.436475579526217,54.613915387238855,14.092759,-14.251134,,,,,,,,7.558245902631579e-11,0.0020000002814814814,3.6173123780000004e-11,0.002000000322222222
63674389.64,,0.5882690557894737,0.00016475948105263157,0.002675692089473684,-0.8086608552631579,10.0,1050.0,1051.0,1050.0,1051.0,900.0,900.0,900.0,900.0,900.0,900.0,,,,0.6558601,0.13064954,4.78982,0.010732903,-0.011667691,0.047863025,0.0018974574,-0.09449667,-0.075356424,,,,,16.67,16.669773,0.5205078,0.5254445,13.970501,6.0348625,0.953919,7.810382109166668e-11,0.002000000203571429,4.5715327360769223e-11,0.002000000275
63769634.34,39.67,0.5882813215789474,0.00016620258263157895,0.0026803069473684206,-0.80865193,10.0,1050.0,1051.0,1050.0,1051.0,900.0,900.0,900.0,900.0,900.0,900.0,,,,0.6577667,0.13079509,4.7945747,0.010310501,-0.011337612,0.046782933,0.020867497,-0.046858884,-0.08748042,24.43647561543804,54.61391539200576,14.080769,-14.257816,,,,,,,,7.545787441292e-11,0.002000000257692308,2.84609907048e-11,0.0020000002884615386
63863736.62,,0.5882952105263158,0.00016315740473684211,0.0026776267263157894,-0.8086418310526315,10.0,1050.0,1051.0,1050.0,1051.0,900.0,900.0,900.0,900.0,900.0,900.0,,,,0.6599704,0.1305259,4.801019,0.010290885,-0.011495635,0.0466058,-0.009642333,-0.002298908,-0.0723603,,,,,16.67,16.669813,0.5205078,0.523241,13.916853,6.0637913,0.9539333,5.854358625916666e-11,0.0020000002000000005,3.811130246755556e-11,0.0020000002500000003
63960123.82,,0.5883068015,0.000154414904,0.0026751274449999998,-0.8086334235000001,10.0,1050.0,1051.0,1050.0,1051.0,900.0,900.0,900.0,900.0,900.0,900.0,,,,0.6619157,0.12995201,4.805124,0.010197239,-0.011359794,0.04563543,-0.013664288,-0.026439112,-0.02733327,24.436475652751074,54.61391538367776,14.070219,-14.263113,,,,,,,,7.073180957727272e-11,0.0020000002074074073,4.547109129347826e-11,0.0020000002740740742
64054945.52,,0.5883109352631579,0.00015225434368421054,0.002668636105263158,-0.8086304378947369,10.0,1050.0,1051.0,1050.0,1051.0,900.0,900.0,900.0,900.0,900.0,900.0,2.0,1.0,1.0,0.6640305,0.12937468,4.811538,0.009669492,-0.011408423,0.045403544,0.009311756,-0.008822154,-0.02116304,,,,,16.67,16.669846,0.5205078,0.52240586,13.863428,6.0928807,0.9539452,8.40125614173913e-11,0.0020000002740740742,5.65486163496e-11,0.002000000192592593
64151287.74,,0.5882950073684211,0.00014285434578947367,0.002665797063157895,-0.8086420268421053,10.0,1050.0,1051.0,1050.0,1051.0,900.0,900.0,900.0,900.0,900.0,900.0,,,,0.6659347,0.12864989,4.8166876,0.0093399305,-0.011661511,0.044635147,-0.00525977,-0.041580345,-0.1301892,24.436475688894472,54.61391537081528,14.058656,-14.268735,,,,,,,,8.315956404549048e-11,0.0020000002142857146,3.2206497111999995e-11,0.002000000235714286
64248220.92,,0.5883023335,0.0001318496235,0.002659343745,-0.8086367154999999,10.0,1050.0,1051.0,1050.0,1051.0,900.0,900.0,900.0,900.0,900.0,900.0,,,,0.668252,0.12784232,4.82245,0.009495974,-0.012064005,0.04432606,-0.01378617,-0.04701392,0.015830733,,,,,16.668749,16.669653,0.5205078,0.5211308,13.810206,6.1217914,0.9538761,7.919693748571428e-11,0.0020000002481481483,2.8176745568e-11,0.0020000002666666667
64344390.86,,0.5883314884210528,0.00013005873868421054,0.002657315257894737,-0.808615507368421,10.0,1050.0,1051.0,1050.0,1051.0,900.0,900.0,900.0,900.0,900.0,900.0,,,,0.6704054,0.12692378,4.8264623,0.009677098,-0.011937176,0.04304998,0.043365177,0.008623578,-0.059845854,24.43647572910049,54.61391535376465,14.048882,-14.272621,,,,,,,,7.770753609880001e-11,0.0020000002714285715,3.8027165522307696e-11,0.0020000002607142857
64441513.78,,0.5883817499999999,0.0001316234115,0.002661097645,-0.8085789355000002,10.0,1050.0,1051.0,1050.0,1051.0,900.0,900.0,900.0,900.0,900.0,900.0,,,,0.6732489,0.12635998,4.832218,0.009108405,-0.011994659,0.042447902,-0.0151643455,-0.049761157,-0.08351736,,,,,16.67,16.669712,0.5205078,0.5209405,13.757208,6.150866,0.95389754,6.990700425095238e-11,0.002000000255555556,4.246325208333334e-11,0.002000000277777778
64536414.02,,0.5884121252631579,0.0001369796547368421,0.002664273284210526,-0.8085568105263158,10.0,1050.0,1051.0,1050.0,1051.0,900.0,900.0,900.0,900.0,900.0,900.0,2.0,1.0,1.0,0.6753778,0.12587371,4.835039,0.009228452,-0.011692843,0.041801613,-0.066081375,0.017605519,-0.0027144547,24.436475773818348,54.61391534339196,14.040304,-14.275156,,,,,,,,5.65510896009091e-11,0.002000000288888889,4.0917353158695657e-11,0.0020000003999999997
64632868.12,,0.5884322020000001,0.000135423398,0.0026699743149999995,-0.8085421879999999,10.0,1050.0,1051.0,1050.0,1051.0,900.0,900.0,900.0,900.0,900.0,900.0,,,,0.67828697,0.12474154,4.8399115,0.010033253,-0.011979532,0.04033929,0.05736397,0.037788037,-0.093000166,,,,,,,,,,,,6.97903396e-11,0.0020000002285714288,4.7678001535999996e-11,0.0020000003464285716
64729049.12,,0.5884438963157895,0.0001297466482105263,0.002669921942105263,-0.808533687368421,10.0,1050.0,1051.0,1050.0,1051.0,900.0,900.0,900.0,900.0,900.0,900.0,,,,0.6806324,0.12350656,4.8431387,0.0095474925,-0.012458733,0.039361313,-0.12031359,-0.059662573,-0.1654239,24.43647582107434,54.613915320009,14.032205,-14.277028,16.67,16.66976,0.5155029,0.5199741,13.70442,6.179789,0.9539142,9.046735216454545e-11,0.002000000174074074,2.8652218482083333e-11,0.0020000002111111117
64822147.44,39.69499999999999,0.5884577952631579,0.00012755792705263156,0.0026755562736842107,-0.808523542631579,,,,,,,,,,,,,,,0.6837551,0.12222935,4.8472342,0.01068228,-0.012518893,0.038888294,0.028255906,0.02995632,0.0009962325,,,,,,,,,,,,8.22670228047619e-11,0.0020000002214285717,3.83207169e-11,0.002000000403571429
64918528.44,,0.5884740075000001,0.0001219527026,0.002672533485,-0.8085117820000001,10.0,1050.0,1051.0,1050.0,1051.0,900.0,900.0,900.0,900.0,900.0,900.0,,,,0.6865435,0.12088689,4.8499465,0.010766975,-0.013248021,0.03772386,-0.023769626,-0.09437619,-0.109782256,,,,,16.668749,16.669687,0.5155029,0.5193031,13.651833,6.2087045,0.9538885,7.544879243863636e-11,0.0020000002333333336,5.944114607826086e-11,0.0020000003222222225
65014418.7,,0.5884848868421052,0.00011975670652631579,0.0026723912263157895,-0.8085038415789473,10.0,1050.0,1051.0,1050.0,1051.0,900.0,900.0,900.0,900.0,900.0,900.0,2.0,1.0,1.0,,,,,,,,,,24.43647587423424,54.61391529413168,14.025396,-14.277538,,,,,,,,7.14323874675e-11,0.002000000307142857,2.0993511519615387e-11,0.002000000239285714
65109666.42,,0.5884787375,0.00011239370774999998,0.002668471805,-0.8085083195000001,10.0,1050.0,1051.0,1050.0,1051.0,900.0,900.0,900.0,900.0,900.0,900.0,,,,0.68944234,0.11929079,4.853963,0.010866729,-0.013668676,0.036836844,-0.019163905,-0.03511523,-0.052055303,,,,,16.67,16.66974,0.5155029,0.5181419,13.599444,6.237549,0.95390755,6.120852011842105e-11,0.0020000002666666667,3.9283963109e-11,0.0020000003814814814
65205897.42,,0.5884795284210526,0.00010782518647368421,0.0026645303368421054,-0.8085077657894737,10.0,1050.0,1051.0,1050.0,1051.0,900.0,900.0,900.0,900.0,900.0,900.0,,,,0.69198424,0.117601976,4.856582,0.010523893,-0.014244511,0.03620543,0.031496745,-0.011727936,-0.06859186,24.43647592316374,54.613915261682976,14.018761,-14.277746,,,,,,,,6.081483195157142e-11,0.0020000002285714288,3.197851554863636e-11,0.002000000292857143
65302838.36,,0.5884775642105263,0.00010134691794736841,0.002668391905263158,-0.8085091952631579,10.0,1050.0,1051.0,1050.0,1051.0,900.0,900.0,900.0,900.0,900.0,900.0,,,,0.69449836,0.116199,4.858879,0.010501118,-0.014818537,0.03492677,-0.007040487,-0.07381233,-0.14314894,,,,,16.67,16.669785,0.51049805,0.5165014,13.547266,6.266265,0.9539233,7.547720792764705e-11,0.0020000002321428575,2.8856901831818183e-11,0.002000000342857143
65398974.64,,0.5884896645,9.2297433e-05,0.002667959195,-0.8085003845000001,10.0,1050.0,1051.0,1050.0,1051.0,900.0,900.0,900.0,900.0,900.0,900.0,,,,0.6967856,0.11489963,4.860746,0.010758149,-0.014859437,0.034089845,0.060761776,0.046255115,-0.072169185,24.4364759663437,54.61391523498894,14.014597,-14.275011,,,,,,,,8.035374438473684e-11,0.0020000002555555555,1.919501474727273e-11,0.0020000003481481484
65495980.42,,0.5885235436842106,8.500991621052632e-05,0.002669236810526316,-0.8084757057894736,10.0,1050.0,1051.0,1050.0,1051.0,900.0,900.0,900.0,900.0,900.0,900.0,,,,0.6992918,0.11371146,4.8633146,0.010120904,-0.015092178,0.03306037,-0.041201297,-0.039060917,-0.10111975,,,,,16.668749,16.669706,0.5155029,0.5168915,13.495296,6.295172,0.95389515,7.140609605016667e-11,0.0020000002035714284,4.12594135137037e-11,0.002000000303571429
65590636.88,,0.5885608763157895,8.126881626315789e-05,0.0026766096105263156,-0.8084485115789474,10.0,1050.0,1051.0,1050.0,1051.0,900.0,900.0,900.0,900.0,900.0,900.0,2.0,1.0,1.0,0.7017229,0.11236019,4.865012,0.010096514,-0.015720068,0.031630546,-0.009766974,-0.05971599,-0.06984146,24.436476010745828,54.61391520990411,14.010331,-14.272941,,,,,,,,5.852427273736841e-11,0.0020000002444444443,3.502958651363636e-11,0.0020000003037037037
65687476.06,,0.588592605,8.287974895e-05,0.002674725145,-0.8084254135,10.0,1050.0,1051.0,1050.0,1051.0,900.0,900.0,900.0,900.0,900.0,900.0,,,,0.70477223,0.11094004,4.8687215,0.010072812,-0.015436018,0.031168273,-0.018694226,0.05334733,0.05843944,,,,,16.67,16.669653,0.5155029,0.5171623,13.4435425,6.324108,0.9538761,8.432431017708334e-11,0.0020000002444444448,2.5297289429999994e-11,0.0020000002037037037
65781574.34,39.71,0.5886064784210526,7.306523336842104e-05,0.0026686996842105264,-0.8084153447368421,10.0,1050.0,1051.0,1050.0,1051.0,900.0,900.0,900.0,900.0,900.0,900.0,,,,0.70748365,0.10944085,4.8714433,0.010398355,-0.015943192,0.030031225,-0.007313645,-0.06911761,-0.1383185,24.43647606255331,54.613915181066616,14.003901,-14.272602,,,,,,,,7.243904610227273e-11,0.0020000002769230774,3.2369274994166666e-11,0.0020000002730769235
65876767.9,,0.5886137942105263,5.946993484210526e-05,0.0026589896842105264,-0.8084100505263156,10.0,1050.0,1051.0,1050.0,1051.0,900.0,900.0,900.0,900.0,900.0,900.0,,,,0.7102787,0.10768301,4.87592,0.0097586,-0.016049812,0.03016326,-0.065891914,0.031725675,0.07180007,,,,,16.67,16.669712,0.5155029,0.51735044,13.391995,6.353027,0.95389754,7.84669369375e-11,0.0020000001714285715,4.502697837076923e-11,0.002000000317857143
65972906.98,,0.5886217336842104,4.722393494736842e-05,0.0026608768105263157,-0.8084042615789474,10.0,1050.0,1051.0,1050.0,1051.0,900.0,900.0,900.0,900.0,900.0,900.0,,,,0.71262175,0.105864026,4.8790402,0.010040749,-0.01664967,0.029202685,0.031999573,0.00900119,-0.022893922,24.436476108761347,54.61391514573444,13.996304,-14.27335,,,,,,,,5.999594068333333e-11,0.0020000002642857144,3.80300284875e-11,0.0020000003642857145
66068929.4,,0.5886466515000001,3.4107266e-05,0.002658264185,-0.8083860889999999,10.0,1050.0,1051.0,1050.0,1051.0,900.0,900.0,900.0,900.0,900.0,900.0,2.0,1.0,1.0,0.71553266,0.10382654,4.8824263,0.010122534,-0.017142331,0.029159717,-0.028494986,0.027770925,0.09411675,,,,,16.668749,16.669647,0.5155029,0.5174811,13.340654,6.3819695,0.9538742,6.765680281150001e-11,0.002000000223076923,3.814231341761905e-11,0.0020000003269230768
66164041.9,,0.5886842463157894,2.6627884157894737e-05,0.002649642042105263,-0.8083587499999999,10.0,1050.0,1051.0,1050.0,1051.0,900.0,900.0,900.0,900.0,900.0,900.0,,,,0.7182168,0.10174277,4.8849115,0.010134429,-0.017140942,0.028828382,-0.036698926,0.111847736,0.13197598,24.436476159078648,54.61391510502428,13.990432,-14.272172,,,,,,,,5.086179474761904e-11,0.002000000210714286,3.811514112916666e-11,0.0020000003857142856
66261166.3,,0.5887239868421051,2.175038247368421e-05,0.002652996615789474,-0.8083298121052632,10.0,1050.0,1051.0,1050.0,1051.0,900.0,900.0,900.0,900.0,900.0,900.0,,,,0.7206184,0.10015317,4.8879075,0.009776168,-0.017691601,0.027479965,-0.0052136383,0.0039413236,-0.072064996,,,,,16.668749,16.669594,0.5155029,0.5168767,13.289508,6.410754,0.9538551,6.03430506409091e-11,0.002000000235714286,3.386287149416667e-11,0.0020000003035714285
66357277.08,,0.588751192,1.815577165e-05,0.0026573542600000005,-0.8083099945000001,10.0,1050.0,1051.0,1050.0,1051.0,900.0,900.0,900.0,900.0,900.0,900.0,,,,0.7225973,0.098671556,4.8895617,0.009243266,-0.017914493,0.02708682,-0.0022439414,0.024664393,0.043345083,24.43647619847365,54.613915074686574,13.985782,-14.269593,,,,,,,,8.869312566263158e-11,0.0020000002592592595,3.448804424545454e-11,0.002000000377777778
66454330.44,,0.5887765231578946,1.3154163331578946e-05,0.002659469694736842,-0.8082915336842105,10.0,1050.0,1051.0,1050.0,1051.0,900.0,900.0,900.0,900.0,900.0,900.0,,,,0.72508174,0.09662603,4.892208,0.008986008,-0.018298827,0.026201766,0.06048651,0.0010599374,-0.034123216,,,,,16.668749,16.669445,0.5155029,0.51645696,13.238565,6.439529,0.95380217,7.6160220895e-11,0.0020000002321428575,5.236026930000001e-11,0.002000000285714286
66550184.9,,0.5887868184210526,8.710187721052632e-06,0.0026585174736842103,-0.8082840447368421,10.0,1050.0,1051.0,1050.0,1051.0,900.0,900.0,900.0,900.0,900.0,900.0,2.0,1.0,1.0,0.7273895,0.094292015,4.8942523,0.008212984,-0.01874961,0.025439026,-0.026323069,-0.06288358,-0.007043195,24.436476241571057,54.613915031425066,13.981091,-14.26738,,,,,,,,5.556821614583333e-11,0.0020000002666666667,3.9346198920030765e-11,0.002000000262962963
66645562.5,,0.5888017335000001,5.2392713865e-06,0.002646826825,-0.8082732325,10.0,1050.0,1051.0,1050.0,1051.0,900.0,900.0,900.0,900.0,900.0,900.0,,,,0.73022413,0.09226607,4.8976183,0.008487484,-0.018998496,0.024859628,-0.018554872,0.0044333986,-0.09139129,,,,,16.668749,16.669325,0.5155029,0.5161655,13.187826,6.468336,0.95375925,5.489492369428571e-11,0.002000000214814815,4.807245927304348e-11,0.002000000440740741
66741953.46,,0.5888273668421052,3.029176647368421e-06,0.0026424960631578945,-0.8082545536842105,10.0,1050.0,1051.0,1050.0,1051.0,900.0,900.0,900.0,900.0,900.0,900.0,,,,0.7333401,0.08980442,4.9002185,0.008777561,-0.020019336,0.024352817,0.030331654,-0.13524762,-0.09175763,24.43647629508582,54.61391498709619,13.975124,-14.2656555,,,,,,,,5.3287770257142855e-11,0.002000000307142857,2.4019279578161908e-11,0.0020000003678571432
66836035.3,39.730000000000004,0.5888725610526316,5.181682410526316e-06,0.00263446227368421,-0.8082216252631579,10.0,1050.0,1051.0,1050.0,1051.0,900.0,900.0,900.0,900.0,900.0,900.0,,,,0.73629534,0.0882688,4.9035025,0.008974639,-0.019696081,0.02443785,0.035001278,-0.017014684,-0.010369966,,,,,,,,,,,,9.286620583043479e-11,0.0020000002444444448,1.6214428072307694e-11,0.0020000003222222225
66931362.52,,0.5889097310526316,8.492313984210525e-06,0.002643236194736842,-0.8081945400000001,10.0,1050.0,1051.0,1050.0,1051.0,900.0,900.0,900.0,900.0,900.0,900.0,,,,0.7387702,0.08678562,4.9049973,0.008988899,-0.019546486,0.023312794,0.03655091,-0.010295032,-0.083595395,24.436476343919903,54.61391495727624,13.970346,-14.262981,16.668749,16.669224,0.5155029,0.5166582,13.1373,6.497263,0.953723,9.255336819565216e-11,0.0020000002,3.1928776904347824e-11,0.0020000002962962966
67027928.54,,0.5889294100000001,9.567346825e-06,0.00264433602,-0.8081801909999999,10.0,1050.0,1051.0,1050.0,1051.0,900.0,900.0,900.0,900.0,900.0,900.0,,,,0.74188274,0.08498126,4.907292,0.008709149,-0.01965203,0.023088004,-0.0044192593,-0.01751539,-0.07228185,,,,,,,,,,,,6.46347122435e-11,0.002000000242857143,3.003789537956522e-11,0.0020000003107142855
67123071.6,,0.5889511942105262,4.520643834736842e-06,0.0026383391157894735,-0.8081643452631578,,,,,,,,,,,,2.0,1.0,1.0,0.74474937,0.08306442,4.908819,0.008826728,-0.019500148,0.022495313,0.004629292,0.02088516,0.056617785,24.43647639769197,54.61391492051789,13.966524,-14.259235,16.668749,16.669245,0.5205078,0.5178345,13.086974,6.5263634,0.95373064,5.920861211416666e-11,0.002000000218518519,3.114753635192308e-11,0.002000000225925926
67218875.88,,0.5889746925,2.23535494035e-06,0.00263529216,-0.80814722,10.0,1050.0,1051.0,1050.0,1051.0,900.0,900.0,900.0,900.0,900.0,900.0,,,,0.7473808,0.08167513,4.9108043,0.008986179,-0.019828191,0.021760324,0.037552595,-0.02093575,-0.045588773,,,,,,,,,,,,8.950302027538461e-11,0.0020000001678571427,2.3866478305555558e-11,0.002000000225
67315984.76,,0.5889828115,-4.95860738485e-06,0.0026415804750000004,-0.8081413005000002,10.0,1050.0,1051.0,1050.0,1051.0,900.0,900.0,900.0,900.0,900.0,900.0,,,,0.7495775,0.080357164,4.91191,0.008651444,-0.020527646,0.021045033,-0.11027015,-0.23376314,0.10394875,,,,,16.668749,16.669262,0.5155029,0.5178172,13.0368595,6.5552826,0.95373636,0.3258788473308668,0.32110805081851845,0.3285027273097039,0.31575686827407407
67411880.14,,0.5890886655,-1.0776971630000002e-05,0.0026778003249999997,-0.8080639694999998,10.0,1513.0,1523.0,1514.0,1511.0,900.0,900.0,900.0,900.0,900.0,900.0,,,,,,,,,,,,,24.436476441112607,54.61391489377535,13.963433,-14.254695,,,,,,,,0.5089543882142856,0.5206589707142857,0.5143308314285714,0.5127043742857142
67509057.24,,0.5892079363157895,-1.182505055263158e-05,0.002066378442105263,-0.8079787636842105,10.0,1566.0,1575.0,1564.0,1568.0,900.0,900.0,900.0,900.0,900.0,900.0,,,,0.7524929,0.07824647,4.9135656,0.010411928,-0.026976952,0.01478779,-0.9277876,0.041939903,0.030453494,,,,,16.3025,16.623377,30.875122,7.364207,13.012609,7.791975,1.0,0.5733130314285715,0.5781197710714286,0.5799788582142856,0.5791052207142858
67603567.82,,0.5898041505263157,-0.0004317062492105263,0.0012316128531578948,-0.8075450157894736,10.0,1626.0,1643.0,1643.0,1641.0,900.0,900.0,900.0,900.0,900.0,900.0,2.0,1.0,1.0,0.7545506,0.075859636,4.913349,0.0018564467,-0.021680174,0.014354721,0.16231035,-0.57836807,-0.78010595,24.436476485836355,54.61391484934836,13.961994,-14.248474,,,,,,,,0.621902194074074,0.6161261977777778,0.6313325685185185,0.6205460581481481
67700549.12,,0.588904461,-0.001630709415,-0.0020519827341999998,-0.8081966795,10.0,1653.0,1635.0,1633.0,1627.0,900.0,900.0,900.0,900.0,900.0,900.0,,,,0.7568259,0.07447238,4.9091043,-0.004816254,-0.015447982,-0.013931842,1.3834451,0.9518764,-2.2244067,,,,,16.365,16.576984,24.689087,12.949177,13.075684,9.22836,1.0,0.6407135107407407,0.605496384074074,0.6009115585185185,0.5977663696296296
67795292.96,39.75,0.5859101538888889,-0.00121883,-0.006560424688888889,-0.8103470927777779,10.0,1662.0,1600.0,1592.0,1603.0,900.0,900.0,900.0,900.0,900.0,900.0,,,,0.7572828,0.07294216,4.9015927,-0.017754572,-0.022482036,-0.014748435,-0.41962898,0.09661081,0.36299554,24.43647651040778,54.61391482052927,13.973751,-14.229351,,,,,,,,0.6335117866666666,0.58573958,0.567451525925926,0.570076572962963
67889710.84,,0.5827445305000001,-0.004178400824999999,-0.005260966785,-0.8126227484999999,10.0,1600.0,1639.0,1637.0,1540.0,900.0,900.0,900.0,900.0,900.0,900.0,,,,0.75870687,0.07088954,4.8968573,-0.025115732,-0.032852486,0.024210207,0.48931867,-0.56027395,-1.4337391,,,,,16.42375,16.548737,19.263794,15.147656,13.115036,10.360518,1.0,0.5961834992592593,0.5951666248148149,0.5977234503703704,0.5496301007407408
67985814.14,,0.5830845489473684,-0.003402891152631579,-0.0016945353552631577,-0.8124014900000001,10.0,1581.0,1615.0,1647.0,1580.0,900.0,900.0,900.0,900.0,900.0,900.0,,,,0.75838745,0.069067106,4.892292,-0.028142678,-0.014371947,0.019650862,2.0172937,-0.058463503,-0.062411647,24.43647652034216,54.61391478225113,13.983051,-14.212553,,,,,,,,0.5797984053571429,0.5826449053571429,0.5954311757142857,0.5920950478571428
68082497.28,,0.5858838889473684,-0.0007142526557157895,0.0020454390147368424,-0.8103903863157895,10.0,1559.0,1617.0,1623.0,1641.0,900.0,900.0,900.0,900.0,900.0,900.0,2.0,1.0,1.0,0.7602792,0.06852285,4.8879967,-0.041113097,-0.0062779407,0.028840091,-0.82427317,-0.50093406,0.90453094,,,,,16.3975,16.523314,21.160645,16.896679,13.1420765,11.523773,1.0,0.5730617877777777,0.5729914322222223,0.6065178581481481,0.6050148337037037
68176997.0,,0.58812676,-4.149782495e-05,0.002632542175,-0.8087642455000001,10.0,1590.0,1616.0,1621.0,1607.0,900.0,900.0,900.0,900.0,900.0,900.0,,,,0.7629205,0.068944424,4.881158,-0.03135064,0.00078540476,0.010610264,-1.0182972,0.23082316,1.1731085,24.43647656110888,54.61391478103927,13.994185,-14.193715,,,,,,,,0.5761330759259259,0.5905667959259259,0.6009123814814814,0.5890074348148148
68274140.56,,0.5871439410526316,-0.00030347566368421055,0.0031270278631578947,-0.8094756442105262,10.0,1600.0,1672.0,1594.0,1579.0,900.0,900.0,900.0,900.0,900.0,900.0,,,,0.7678503,0.06726769,4.874081,-0.015266143,-0.007573136,0.0130457105,0.21504287,-0.0019939775,0.75108707,,,,,16.395,16.501663,20.990479,18.095428,13.172967,12.685041,1.0,0.5980841492857143,0.6100533735714285,0.5855292682142857,0.572355789642857
68370091.24,,0.5842955395,-6.98935340685e-05,0.0025383319449999997,-0.811535003,10.0,1653.0,1634.0,1604.0,1567.0,900.0,900.0,900.0,900.0,900.0,900.0,,,,0.77346843,0.06331857,4.866444,-0.0070046685,-0.027845843,0.00474668,-1.0316958,-0.731895,0.33317372,24.436476655968747,54.6139147254666,14.0089,-14.172148,,,,,,,,0.6189400662962963,0.6122520496296296,0.573384585925926,0.5704590355555555
68467616.24,,0.5809395710526315,0.0001387087855263158,0.0018044056736842104,-0.8139445915789474,10.0,1615.0,1627.0,1609.0,1614.0,900.0,900.0,900.0,900.0,900.0,900.0,,,,0.7818982,0.05736523,4.860993,0.0060718637,-0.02823162,-0.0006351173,-0.30050972,-0.51076746,0.33342546,,,,,16.383749,16.481817,21.430908,19.058298,13.204214,13.870557,1.0,0.6047201939285716,0.6136193242857144,0.5937564671428571,0.5760598410714285
68563155.4,,0.5804174565,-1.9943194207500005e-05,0.0021593997049999996,-0.814316236,10.0,1609.0,1637.0,1630.0,1605.0,900.0,900.0,900.0,900.0,900.0,900.0,,,,0.7877866,0.052857097,4.8551655,0.012757699,-0.027591769,0.002347631,0.570732,0.8120855,-0.7200032,24.436476784735127,54.6139146221272,14.020178,-14.15464,,,,,,,,0.6006328607407408,0.6094033381481482,0.6003467592592593,0.5914259107407408
68659182.12,,0.5796359889473685,9.099477214210526e-05,0.001060394972105263,-0.8148744947368421,10.0,1639.0,1623.0,1602.0,1621.0,900.0,900.0,900.0,900.0,900.0,900.0,2.0,1.0,1.0,0.7965117,0.048644032,4.8498197,0.021315526,-0.03407486,-0.010905546,-0.15388298,-0.28113547,-0.44130018,,,,,16.3775,16.464022,21.671143,19.869875,13.237693,15.082406,1.0,0.6131658837037037,0.6067220585185185,0.5942229874074074,0.5898207248148148
68754684.06,,0.5794629442105264,0.0002626457875789474,-0.002155219736842105,-0.8149950205263158,10.0,1652.0,1607.0,1608.0,1623.0,900.0,900.0,900.0,900.0,900.0,900.0,,,,0.8026454,0.045078285,4.841239,0.01372896,-0.035593864,-0.014587167,-0.12496809,-0.52080756,0.98395073,24.43647691836337,54.613914545287386,14.034104,-14.134494,,,,,,,,0.6192127207142858,0.5915508146428571,0.5999571442857142,0.5976914571428572
68848340.9,39.7699985,0.5799663326315789,0.001070628832631579,-0.004478671642105264,-0.8146273005263158,10.0,1632.0,1622.0,1636.0,1625.0,900.0,900.0,900.0,900.0,900.0,900.0,,,,0.8083476,0.041526232,4.8372073,0.0071206638,-0.03575121,-0.00409569,0.03508621,-0.5800921,0.41251475,,,,,,,,,,,,0.6199785922222222,0.5944051770370371,0.6084196396296297,0.6095819062962963
68944070.58,,0.5806424957894737,-0.0007725662921052632,-0.004933008673684211,-0.8141427889473686,10.0,1662.0,1637.0,1653.0,1631.0,900.0,900.0,900.0,900.0,900.0,900.0,,,,0.81191355,0.03804816,4.831969,-0.0016021845,-0.037838057,-0.011679437,-0.03162206,-0.9733917,-0.31816623,24.43647700171397,54.61391447584317,14.043375,-14.119228,16.36625,16.447775,22.401855,20.568462,13.271706,16.317621,1.0,0.635135687777778,0.6034934214814816,0.6292088433333334,0.6007836074074073
69041004.82,,0.580134235,-0.003308724835,-0.0056744275600000005,-0.8144934644999999,10.0,1705.0,1619.0,1643.0,1620.0,900.0,900.0,900.0,900.0,900.0,900.0,,,,0.8148549,0.034656253,4.828806,-0.027509583,-0.03817257,-0.032500807,-0.18004982,0.14456843,-0.14592491,,,,,,,,,,,,0.6694373903571428,0.6048242349999999,0.6287081482142858,0.6021348617857143
69136376.54,,0.5767707842105264,-0.004061531294736842,-0.008966535394736842,-0.8168446036842106,10.0,1700.0,1641.0,1615.0,1588.0,900.0,900.0,900.0,900.0,900.0,900.0,2.0,1.0,1.0,0.8147899,0.030628648,4.821351,-0.03955947,-0.048639856,-0.05353154,0.6136753,-0.25970444,0.12251277,24.43647702758153,54.61391440255256,14.053992,-14.102939,16.34375,16.430546,23.833252,21.489574,13.3098755,17.633905,1.0,0.6785276803846154,0.6193801276923078,0.6001301249999998,0.5765415426923077
69232019.24,,0.570551867,-0.0026520865100000002,-0.009345113075,-0.8211996720000002,10.0,1707.0,1659.0,1606.0,1588.0,900.0,900.0,900.0,900.0,900.0,900.0,,,,0.81537175,0.02663365,4.8160915,-0.061530374,-0.057998776,-0.04491681,-0.4621792,-0.11502088,1.38396,,,,,,,,,,,,0.6936797596428572,0.6277486153571428,0.57892875,0.5784433653571429
69328803.6,,0.5628219631578947,0.0004909965834210526,-0.009408394,-0.826519317368421,10.0,1718.0,1667.0,1612.0,1572.0,900.0,900.0,900.0,900.0,900.0,900.0,,,,0.81496763,0.022166442,4.8103905,-0.069182605,-0.06305062,-0.060609065,0.09403887,0.33848456,-0.92173773,24.43647702918,54.61391431896213,14.064953,-14.086081,16.35,16.417702,23.07251,21.837006,13.348367,18.894314,1.0,0.7082838518518518,0.6435986274074074,0.5748819292592592,0.5772923588888889
69425009.86,,0.5545506400000001,-0.0009424976965789474,-0.0067769417000000005,-0.8321152636842105,10.0,1736.0,1664.0,1625.0,1560.0,900.0,900.0,900.0,900.0,900.0,900.0,,,,0.8183458,0.01820115,4.8050046,-0.09145958,-0.06822795,-0.05813267,0.017098004,-0.58092535,1.2369139,,,,,,,,,,,,0.7075147010344827,0.6528083434482759,0.593245004827586,0.5494877920689656
69522084.24,,0.5458866254999999,-0.0058628855499999995,-0.0033867870499999994,-0.837825249,,,,,,,,,,,,,,,0.81915474,0.013852943,4.799597,-0.119420335,-0.07448969,-0.044062294,-1.5928804,-0.6315551,1.7805634,24.43647706683556,54.61391423684062,14.075747,-14.070354,16.342499,16.404856,23.427856,22.316149,13.387757,20.201954,1.0,0.709771622962963,0.6637869733333334,0.5930457003703703,0.5522214981481481
69617652.48,,0.537739762631579,-0.004704272015789474,-0.002809318047368421,-0.8430884142105263,10.0,1740.0,1683.0,1636.0,1580.0,900.0,900.0,900.0,900.0,900.0,900.0,2.0,1.0,1.0,0.82379305,0.011099967,4.7969213,-0.13270137,-0.07494858,-0.059740484,0.113233544,-0.4046022,0.76150465,,,,,,,,,,,,0.7311532685714285,0.65384683,0.5896369846428572,0.5657941628571429
69713420.16,,0.5296811084999999,-0.00234627867,-0.0047733039650000005,-0.848175325,10.0,1752.0,1665.0,1607.0,1588.0,900.0,900.0,900.0,900.0,900.0,900.0,,,,,,,,,,,,,,,,,16.328749,16.391851,24.233643,22.887453,13.429197,21.55217,1.0,0.7279605089285714,0.6634221403571428,0.5819062428571428,0.5696689485714286
69807254.44,39.785,0.5218135857894737,7.922661031578947e-05,-0.004288700736842105,-0.8530446115789473,10.0,1740.0,1684.0,1600.0,1591.0,900.0,900.0,900.0,900.0,900.0,900.0,,,,0.82578343,0.007301135,4.7911563,-0.1485346,-0.08096569,-0.08462995,0.3202638,-0.30794117,-1.0928677,24.436477126448818,54.61391417212127,14.084187,-14.057249,,,,,,,,0.7264606792307691,0.6662657919230769,0.5760205507692308,0.5695245715384616
69902980.48,,0.5144162247368421,0.0008801892363157895,-0.0031991388736842107,-0.8575303289473684,10.0,1740.0,1679.0,1602.0,1583.0,900.0,900.0,900.0,900.0,900.0,900.0,,,,0.8380661,0.0013461617,4.78836,-0.1515955,-0.08751267,-0.102868065,-0.08684274,0.5792503,-0.039863102,,,,,16.3275,16.380579,24.043457,23.269178,13.472317,22.903782,1.0,0.7231666757142856,0.6728317653571427,0.5817022614285714,0.5587940503571428
69998606.36,,0.5071850130000001,1.0514081400000001e-05,-0.00022936092336085,-0.8618341389999999,10.0,1729.0,1698.0,1606.0,1574.0,900.0,900.0,900.0,900.0,900.0,900.0,,,,0.8464247,-0.0054206452,4.7841415,-0.1511762,-0.08500188,-0.1328232,0.6682832,-0.6590507,-2.2189474,24.4364773120802,54.613914046454376,14.091202,-14.046062,,,,,,,,0.7211353925925926,0.6677704251851851,0.5821232762962963,0.5603844496296296
70096107.7,,0.5014497663157895,-0.0005029502168421053,-0.0011275753310526315,-0.8651841678947367,10.0,1737.0,1669.0,1608.0,1581.0,900.0,900.0,900.0,900.0,900.0,900.0,,,,0.86775714,-0.016798763,4.774821,-0.15564628,-0.07943788,-0.15249078,-0.63316756,0.27783248,0.87956214,,,,,16.32625,16.370943,23.8833,23.49784,13.514745,24.24514,1.0,0.7196120732142859,0.6599788535714286,0.5871528121428572,0.5611590632142857
70190301.96,,0.49628473,-0.00039524191157894737,-0.0013969488631578948,-0.8681567121052631,10.0,1742.0,1671.0,1594.0,1593.0,900.0,900.0,900.0,900.0,900.0,900.0,2.0,1.0,1.0,0.8833617,-0.028206551,4.7626157,-0.16219455,-0.073172234,-0.16312383,0.31889865,0.9904794,-0.88493633,24.4364776442626,54.61391382137312,14.112728,-14.020344,,,,,,,,0.7201296274074075,0.6649531314814815,0.5764424403703703,0.567843444074074
70287296.94,,0.4907119785,0.00048005701999999996,0.00034638777549999997,-0.8713188969999999,10.0,1732.0,1692.0,1602.0,1582.0,900.0,900.0,900.0,900.0,900.0,900.0,,,,0.9063864,-0.03651167,4.748048,-0.15920998,-0.07433363,-0.16532612,-0.7198638,-0.46034262,0.18083854,,,,,16.31875,16.362194,24.13855,23.668589,13.556245,25.58868,1.0,0.71718295,0.6769960766666666,0.5819181,0.5513854792592593
70382906.94,,0.4839727431578947,-0.00041065133339473684,0.0010778264921052633,-0.875079074736842,10.0,1751.0,1691.0,1595.0,1575.0,900.0,900.0,900.0,900.0,900.0,900.0,,,,0.9224536,-0.04325184,4.7327733,-0.16642414,-0.05597517,-0.17343216,0.47825927,0.057136413,-0.7257879,24.436477995824365,54.61391367275441,14.1425705,-13.986502,,,,,,,,0.7259237371428572,0.6757457707142857,0.5610790678571429,0.5455777314285715
70480421.9,,0.476553077,0.0010080823085,0.0019356693899999998,-0.8791393989999999,10.0,1728.0,1695.0,1574.0,1556.0,900.0,900.0,900.0,900.0,900.0,900.0,,,,0.9482209,-0.05508122,4.7163234,-0.16099389,-0.05168589,-0.15788114,0.27236453,0.22063772,0.4610153,,,,,16.33625,16.355314,22.361816,23.614079,13.599857,26.90599,1.0,0.7160514792592593,0.6859924529629631,0.553930917037037,0.5386638922222222
70576441.06,,0.46957274578947367,0.002110589389473684,0.0019242715000000001,-0.8828866389473683,10.0,1750.0,1713.0,1584.0,1567.0,900.0,900.0,900.0,900.0,900.0,900.0,,,,0.9754089,-0.069503784,4.699604,-0.16268972,-0.039246485,-0.15806669,0.13813946,1.1690662,-0.6828022,24.43647847206309,54.613913413435306,14.175739,-13.948881,,,,,,,,0.7404943721428571,0.6976433110714286,0.5588749946428572,0.5485043675
70672537.16,,0.4633168947368422,0.0029937579736842106,0.0008478190273684211,-0.8861846889473685,10.0,1762.0,1706.0,1571.0,1580.0,900.0,900.0,900.0,900.0,900.0,900.0,2.0,1.0,1.0,1.0113441,-0.07695247,4.6860785,-0.15823439,-0.031421594,-0.15775347,-0.09844256,0.30158412,-1.165126,,,,,16.3025,16.345839,24.929321,24.063229,13.640605,28.312435,1.0,0.7506247959259258,0.6970671296296296,0.5524654374074074,0.5572308937037037
70767062.28,39.799999,0.4571155336842105,0.003706844726315789,-0.0010834341889473685,-0.8893967484210525,10.0,1734.0,1743.0,1606.0,1538.0,900.0,900.0,900.0,900.0,900.0,900.0,,,,1.0427586,-0.08349214,4.66802,-0.15530743,-0.018153321,-0.17344916,-1.372167,0.88472205,0.27059004,24.43647907775324,54.61391327525708,14.207323,-13.914223,,,,,,,,0.7295342784615385,0.7184105969230768,0.57273467,0.530832403076923
70861038.6,,0.45140282099999995,0.007069522834999999,-0.010860174215,-0.8922015615,10.0,1748.0,1698.0,1578.0,1561.0,900.0,900.0,900.0,900.0,900.0,900.0,,,,1.0791314,-0.09567574,4.649417,-0.13231984,-0.018599497,-0.20339242,-0.16500673,0.4669576,-0.9459359,,,,,,,,,,,,0.7444985032142856,0.6920953375,0.5620159242857143,0.5456085864285715
70956964.18,,0.44599229263157897,0.01687565371052632,-0.031696179842105265,-0.8942982242105263,10.0,1768.0,1689.0,1559.0,1599.0,900.0,900.0,900.0,900.0,900.0,900.0,,,,1.1087765,-0.10821234,4.628779,-0.08572397,-0.045369115,-0.21125709,1.015997,0.22306235,-0.5351811,24.436479671466174,54.61391303106869,14.246565,-13.872757,16.30625,16.338554,24.32373,24.227633,13.685636,29.691174,1.0,0.7567981755555555,0.6726695392592593,0.5408971525925926,0.5747406511111112
71054015.64,,0.4406758495,0.0224025523,-0.0413198077,-0.8964320195,10.0,1751.0,1694.0,1575.0,1591.0,900.0,900.0,900.0,900.0,900.0,900.0,,,,1.1459538,-0.1293527,4.6068687,-0.014245195,-0.09554803,-0.21685603,0.29946297,-0.23794486,0.26503697,,,,,,,,,,,,0.7445461425000001,0.6725128535714286,0.5505112032142857,0.5711817282142857
71149717.94,,0.4356016283333333,0.02290447527777778,-0.04119190977777778,-0.8989025288888889,10.0,1750.0,1690.0,1578.0,1591.0,900.0,900.0,900.0,900.0,900.0,900.0,2.0,1.0,1.0,1.1836959,-0.15473871,4.583638,0.063763335,-0.15141325,-0.22412929,-0.25194356,-0.89404756,0.98907983,24.43648034523308,54.61391257147695,14.291705,-13.828015,16.3,16.331966,24.498901,24.329985,13.728691,31.064508,1.0,0.7389181607407407,0.673832407037037,0.5509375733333334,0.5741791377777778
71245146.88,,0.430682649,0.0205126335,-0.035497557049999996,-0.9015680435,10.0,1746.0,1700.0,1571.0,1600.0,900.0,900.0,900.0,900.0,900.0,900.0,,,,1.2330123,-0.18984944,4.5609765,0.14089224,-0.19678324,-0.21739836,1.3136296,0.21148235,0.44366637,,,,,,,,,,,,0.7330831567857141,0.6814586589285714,0.5540970689285715,0.5733556278571429
71341615.26,,0.4259649431578947,0.018690148210526315,-0.030436374052631582,-0.9040326110526316,10.0,1752.0,1692.0,1583.0,1605.0,900.0,900.0,900.0,900.0,900.0,900.0,,,,1.2802689,-0.22643359,4.5396476,0.19206275,-0.23450498,-0.2057601,0.7245229,-0.043408453,-0.071764596,24.436481213734883,54.61391186326838,14.335695,-13.785849,16.297499,16.326189,24.493896,24.369642,13.771483,32.431305,1.0,0.7367828625925925,0.6782582688888888,0.5604269685185185,0.5793296203703704
71438101.72,,0.4217601404999999,0.015360202525,-0.026946953049999993,-0.9061732735000001,10.0,1751.0,1699.0,1601.0,1588.0,900.0,900.0,900.0,900.0,900.0,900.0,,,,1.3285648,-0.26206088,4.5194855,0.23734795,-0.26356253,-0.2024108,1.2933085,0.7856606,-0.37820727,,,,,,,,,,,,0.7389545750000001,0.6816962507142857,0.5755198414285715,0.5718568003571428
71534898.84,,0.41757474736842104,0.009280213684210526,-0.022230521210526315,-0.908320145263158,10.0,1751.0,1694.0,1605.0,1585.0,900.0,900.0,900.0,900.0,900.0,900.0,,,,1.3739793,-0.2970498,4.499244,0.2638385,-0.28692418,-0.2173106,0.36702818,0.20185068,-0.12168371,24.43648205649295,54.6139111657151,14.376099,-13.748119,16.2875,16.319887,25.004395,24.52884,13.814765,33.820175,1.0,0.7406551577777778,0.6798848377777779,0.5884054540740741,0.5590141399999999
71631327.12,,0.41371048650000003,0.005684837045,-0.0207338623,-0.9101537020000002,10.0,1754.0,1695.0,1602.0,1588.0,900.0,900.0,900.0,900.0,900.0,900.0,,,,1.4230212,-0.33124375,4.475969,0.27483138,-0.30748042,-0.22844675,0.35385495,-0.37064502,-1.4495485,,,,,,,,,,,,0.7410138432142855,0.6770530517857143,0.5835673139285715,0.5641786557142858
71726465.9,,0.4097625863157895,0.006183178915789473,-0.022727173421052637,-0.9118868268421053,10.0,1759.0,1692.0,1592.0,1590.0,900.0,900.0,900.0,900.0,900.0,900.0,2.0,1.0,1.0,1.459524,-0.35965016,4.4563627,0.2921224,-0.32603315,-0.2343722,0.28669733,-0.07002803,-0.7230528,24.43648282581495,54.61391054734288,14.418981,-13.708396,16.285,16.313934,25.004395,24.669283,13.859321,35.21623,1.0,0.7473022126923077,0.6743243499999999,0.5739325084615385,0.568298975
71819452.0,39.825,0.405726119,0.008469271645,-0.02401853315,-0.9136386660000001,,,,,,,,,,,,,,,,,,,,,,,,,,,,,,,,,,,0.7450914307142859,0.6802381353571427,0.5703904678571428,0.57292556
71915883.74,,0.40160735894736843,0.009957458105263158,-0.022611702157894736,-0.9154775078947369,10.0,1760.0,1697.0,1585.0,1600.0,900.0,900.0,900.0,900.0,900.0,900.0,,,,1.5021793,-0.37957078,4.4320855,0.30827567,-0.33696747,-0.23395835,0.5539261,0.17856741,-0.52232474,,,,,16.27875,16.30824,25.289673,24.81297,13.903679,36.61942,1.0,0.7423407375,0.6866838571428572,0.5679190146428572,0.5702607114285715
72011473.6,,0.3972566015,0.010779990974999999,-0.02142208575,-0.9173930634999999,10.0,1757.0,1700.0,1589.0,1586.0,900.0,900.0,900.0,900.0,900.0,900.0,,,,1.5387735,-0.39941403,4.4086666,0.32348087,-0.350345,-0.24950753,-0.22941227,-0.41482687,-0.48822805,24.43648353852283,54.61391015455174,14.466677,-13.665705,,,,,,,,0.7479510548148148,0.681620277037037,0.5609983622222222,0.5705952155555556
72109080.64,,0.39294579263157897,0.010977048736842104,-0.020233374157894737,-0.9192723599999999,10.0,1758.0,1700.0,1578.0,1597.0,900.0,900.0,900.0,900.0,900.0,900.0,,,,1.5772446,-0.4120459,4.3839574,0.34327185,-0.3476617,-0.25464496,0.10519946,0.38403615,-0.9053251,,,,,16.275,16.30268,25.349731,24.939444,13.948668,38.026695,1.0,0.7453236639285714,0.6880008496428571,0.5616760260714286,0.5743979017857143
72203270.66,,0.38919386736842104,0.00945406057894737,-0.016826234184210524,-0.9209519536842106,10.0,1758.0,1700.0,1592.0,1588.0,900.0,900.0,900.0,900.0,900.0,900.0,2.0,1.0,1.0,1.6155224,-0.4257741,4.358771,0.3522507,-0.3455723,-0.25905922,-0.4010727,-0.17048645,0.14488406,24.4364842287418,54.61390989416459,14.516573,-13.621305,,,,,,,,0.739072985185185,0.6839784725925925,0.5692260588888889,0.5633156114814815
72300310.1,,0.3858727936842105,0.006872436047368422,-0.013005727394736844,-0.9224335094736842,10.0,1750.0,1702.0,1592.0,1585.0,900.0,900.0,900.0,900.0,900.0,900.0,,,,1.6582719,-0.42765963,4.332881,0.37090516,-0.3333179,-0.27139777,0.62543464,0.15697514,-0.6030038,,,,,16.27125,16.29743,25.274658,25.033531,13.993866,39.436817,1.0,0.7393817203571429,0.6861173528571428,0.5702732203571429,0.5670650060714286
72395702.98,,0.382538878,0.005918290455,-0.010198717675,-0.923863347,10.0,1750.0,1702.0,1579.0,1598.0,900.0,900.0,900.0,900.0,900.0,900.0,,,,1.6996479,-0.43251285,4.305686,0.3709565,-0.3187199,-0.27540207,0.35997987,-0.1502895,0.97768474,24.43648498530076,54.61390982759856,14.569657,-13.573571,,,,,,,,0.7368821581481482,0.6853896899999999,0.559469255925926,0.57104498
72493479.96,,0.3790656363157895,0.00616118317368421,-0.008978362447368422,-0.9253050778947368,10.0,1755.0,1699.0,1584.0,1586.0,900.0,900.0,900.0,900.0,900.0,900.0,,,,1.7459826,-0.43049005,4.277902,0.3734733,-0.29680723,-0.28664476,0.50735134,-1.0278612,0.7194561,,,,,16.2675,16.293062,25.339722,25.035336,14.037666,40.83709,1.0,0.7573634357142858,0.6947450235714285,0.5719398975000001,0.58167709
72588849.82,,0.375316811,0.004666105049999999,-0.007662933030000001,-0.9268518125,10.0,1809.0,1738.0,1618.0,1637.0,900.0,900.0,900.0,900.0,900.0,900.0,,,,1.7917274,-0.43016338,4.2493854,0.37174454,-0.27279595,-0.2987281,-0.6180693,0.17843007,-0.455573,24.43648581339178,54.61390985080677,14.6259575,-13.523853,,,,,,,,0.8049947666666667,0.7359075037037037,0.6079814459259258,0.6222991681481481
72686408.8,,0.3710203215789474,0.0028983677684210527,-0.0051852348210526325,-0.9286047473684211,10.0,1806.0,1739.0,1612.0,1631.0,900.0,900.0,900.0,900.0,900.0,900.0,2.0,1.0,1.0,1.8387353,-0.42268366,4.212346,0.36370477,-0.241178,-0.3975087,-1.5576174,1.5350137,-1.53838,,,,,16.22375,16.279482,28.778076,26.444489,14.093419,42.49661,1.0,0.7902172233333333,0.716880475925926,0.5865426959259259,0.6033705781481481
72779089.42,39.845,0.36710076210526316,0.0016244158068421052,-0.0047953617,-0.9301666247368422,10.0,1770.0,1692.0,1579.0,1588.0,900.0,900.0,900.0,900.0,900.0,900.0,,,,1.8777494,-0.42003134,4.169633,0.35875702,-0.2232019,-0.47500247,0.3760223,-0.3531872,-1.1035523,24.43648658700639,54.61390995089201,14.70571,-13.450362,,,,,,,,0.7608335353846154,0.6748668430769231,0.5552462584615385,0.5683637111538462
72874193.0,,0.36359010578947365,0.0004062727578947369,-0.005492779589473684,-0.9315421357894736,10.0,1774.0,1687.0,1577.0,1591.0,900.0,900.0,900.0,900.0,900.0,900.0,,,,1.9238769,-0.413174,4.12551,0.35151064,-0.20005672,-0.4675084,-0.25463387,-0.033997346,-0.25906545,,,,,,,,,,,,0.7625308937931033,0.6719812586206898,0.5549709527586206,0.5697677265517241
72969730.64,,0.3603663605263158,0.00020787356336842105,-0.005673600715789473,-0.932793104736842,10.0,1774.0,1696.0,1579.0,1599.0,900.0,900.0,900.0,900.0,900.0,900.0,,,,1.9664748,-0.41141865,4.0844,0.3435715,-0.18972918,-0.44071552,-0.37999025,-0.4608429,0.48332956,24.43648738493244,54.61391003596895,14.790943,-13.373156,16.26875,16.279064,24.644043,25.708061,14.141054,43.838203,1.0,0.7643735559259258,0.6786716259259259,0.5583157574074075,0.5792198455555556
73066181.38,,0.35759979799999997,0.00046015770900000003,-0.00464627911,-0.9338629155,10.0,1773.0,1697.0,1586.0,1607.0,900.0,900.0,900.0,900.0,900.0,900.0,2.0,2.0,1.0,2.015386,-0.4096017,4.045501,0.342936,-0.17601703,-0.44295502,-0.13683064,0.20128962,-0.65498555,,,,,,,,,,,,0.7652435648148148,0.6795672655555555,0.5650122033333334,0.5849986866666667
73161130.54,,0.35560547315789476,-0.0013018103160000003,-0.0019463602075789476,-0.934630604736842,10.0,1774.0,1692.0,1587.0,1617.0,900.0,900.0,900.0,900.0,900.0,900.0,,,,2.061238,-0.4112424,4.0063925,0.33584014,-0.16087171,-0.4322543,-0.033324648,0.6530371,0.39261362,24.43648823715908,54.61391003770994,14.868951,-13.302527,16.25375,16.275082,25.640015,25.658075,14.18451,45.263428,1.0,0.7672304362962962,0.6762944140740741,0.5607689148148148,0.5997268944444444
73258188.6,,0.3540512639999999,-0.008790596745,0.006127243100000001,-0.9351575819999999,10.0,1776.0,1697.0,1602.0,1603.0,900.0,900.0,900.0,900.0,900.0,900.0,,,,2.1016974,-0.40627944,3.9664764,0.31012464,-0.1350189,-0.4398821,0.21530165,-0.11025688,-0.90722334,,,,,,,,,,,,0.7604420003571429,0.6835669999999999,0.5809927046428571,0.5827055871428571
73354483.02,,0.3523665631578947,-0.016431827289473688,0.012133572131578946,-0.935637064736842,10.0,1776.0,1698.0,1603.0,1595.0,900.0,900.0,900.0,900.0,900.0,900.0,,,,2.1355693,-0.40225807,3.9249053,0.26568365,-0.10521722,-0.44792235,0.1365611,0.14723739,-1.1647631,24.436488905636374,54.61391012645793,14.950438,-13.229479,16.25,16.270933,25.865234,25.729717,14.230765,46.70881,1.0,0.7639662014814815,0.6824068366666667,0.5822417685185185,0.5763492388888889
73451148.86,,0.3502448705,-0.01966199035,0.013573395375,-0.9363530919999998,10.0,1784.0,1696.0,1593.0,1598.0,900.0,900.0,900.0,900.0,900.0,900.0,,,,2.1808882,-0.4042452,3.8812137,0.21847491,-0.082375616,-0.45355955,-0.9211913,0.17874107,0.2973501,,,,,,,,,,,,0.7699893817857142,0.6812640307142858,0.5715661253571429,0.57935248
73547648.28,,0.3474088042105263,-0.019640729473684213,0.012572673526315789,-0.9374231136842105,10.0,1797.0,1691.0,1583.0,1597.0,900.0,900.0,900.0,900.0,900.0,900.0,2.0,2.0,1.0,2.219324,-0.40757203,3.8368077,0.17239933,-0.057276286,-0.4602354,-1.2345881,1.4013186,-0.88947046,24.43648965886119,54.61391007396609,15.038536,-13.149712,16.248749,16.267082,25.700073,25.73943,14.277105,48.1482,1.0,0.778707705,0.6815454111538463,0.5662556911538462,0.575769108076923
73642169.56,,0.34427556526315795,-0.018783553736842106,0.009819012789473683,-0.9386286015789475,10.0,1797.0,1691.0,1579.0,1605.0,900.0,900.0,900.0,900.0,900.0,900.0,,,,2.2709615,-0.4152222,3.7926412,0.14212269,-0.043086175,-0.45986235,-0.8295426,0.550234,-0.3501011,,,,,,,,,,,,0.7855897406896553,0.6772382162068966,0.5604587937931034,0.5824407068965518
73739486.5,,0.3411850978947369,-0.018266184999999997,0.008998858263157897,-0.9397750421052631,10.0,1778.0,1714.0,1601.0,1581.0,900.0,900.0,900.0,900.0,900.0,900.0,,,,2.3182817,-0.42372045,3.7436004,0.106600694,-0.034138717,-0.4520206,-0.5779952,-0.103865944,0.8783773,24.43649054880771,54.6139099144505,15.1317425,-13.064709,16.2475,16.26389,25.755127,25.689314,14.321981,49.575012,1.0,0.7762009111111111,0.6902749048148148,0.5740577762962963,0.5680209333333334
73831694.62,39.86,0.3381616178947368,-0.014500725052631579,0.0046891159887810525,-0.9409574263157896,10.0,1795.0,1697.0,1576.0,1616.0,900.0,900.0,900.0,900.0,900.0,900.0,,,,2.3812096,-0.44304478,3.6982296,0.10182678,-0.031934567,-0.45976365,0.40341362,-0.018259095,-2.110026,,,,,,,,,,,,0.780629997037037,0.6867283433333333,0.5596991681481482,0.5859191051851851
73929015.64,,0.3355936142105263,-0.007693361642105263,-0.005447813289473684,-0.9419556036842105,10.0,1783.0,1706.0,1589.0,1603.0,900.0,900.0,900.0,900.0,900.0,900.0,,,,2.4328604,-0.46155772,3.6514142,0.110585816,-0.053725064,-0.46256799,1.2207527,-0.33181155,-0.5108337,24.43649157923892,54.61390954069048,15.223929,-12.981099,16.24375,16.2606,25.660034,25.693575,14.3675785,51.011513,1.0,0.7803387211111112,0.6845414333333333,0.5579291548148148,0.589728922962963
74024582.14,,0.33312360714285716,-0.0036383726142857143,-0.0098053105,-0.9428239152380955,,,,,,,,,,,,,,,2.5036075,-0.4925084,3.6042264,0.1308857,-0.0773072,-0.4546542,-1.5481477,-0.17188129,1.7803572,,,,,,,,,,,,0.7746656153571428,0.6897895353571428,0.5609284135714285,0.5875828717857142
74121003.62,,0.3307354957894737,-0.0011685781194736842,-0.013178890921052634,-0.9436300247368421,10.0,1783.0,1709.0,1582.0,1608.0,900.0,900.0,900.0,900.0,900.0,900.0,2.0,2.0,1.0,2.572294,-0.5260096,3.5566487,0.16170369,-0.10572562,-0.46502486,-0.63190365,0.6632431,0.10619328,,,,,16.24,16.257126,25.695068,25.713495,14.412964,52.449444,1.0,0.7731599007407408,0.6915001696296296,0.5588737737037037,0.5891567040740741
74215502.46,,0.328394784,-0.00021680403739999997,-0.016556383075,-0.94439446,10.0,1785.0,1704.0,1578.0,1610.0,900.0,900.0,900.0,900.0,900.0,900.0,,,,,,,,,,,,,24.43649283319559,54.613908904028605,15.318695,-12.896351,,,,,,,,0.7725661071428572,0.6935071303571428,0.5581735232142857,0.5867635428571428
